{
  "exportedAt": 1781075256476,
  "locations": [
    {
      "locationText": "一壽橋",
      "normalizedQuery": "臺北市 一壽橋",
      "lat": 24.9755446,
      "lng": 121.5558498,
      "geocodeProvider": "nominatim",
      "confidence": 0.05340790341039136,
      "geocodedAt": 1781074235418
    },
    {
      "locationText": "三元街",
      "normalizedQuery": "臺北市 三元街",
      "lat": 25.0279403,
      "lng": 121.5115566,
      "geocodeProvider": "nominatim",
      "confidence": 0.05340790341039136,
      "geocodedAt": 1781074237626
    },
    {
      "locationText": "三民路",
      "normalizedQuery": "臺北市 三民路",
      "lat": 25.0555149,
      "lng": 121.563735,
      "geocodeProvider": "nominatim",
      "confidence": 0.05340790341039136,
      "geocodedAt": 1781074239688
    },
    {
      "locationText": "三水街",
      "normalizedQuery": "臺北市 三水街",
      "lat": 25.0350829,
      "lng": 121.5042742,
      "geocodeProvider": "nominatim",
      "confidence": 0.05340790341039136,
      "geocodedAt": 1781074241965
    },
    {
      "locationText": "三重路",
      "normalizedQuery": "臺北市 三重路",
      "lat": 25.0614371,
      "lng": 121.6138333,
      "geocodeProvider": "nominatim",
      "confidence": 0.05340790341039136,
      "geocodedAt": 1781074244053
    },
    {
      "locationText": "中南街",
      "normalizedQuery": "臺北市 中南街",
      "lat": 25.0520651,
      "lng": 121.6152589,
      "geocodeProvider": "nominatim",
      "confidence": 0.05340790341039136,
      "geocodedAt": 1781074245802
    },
    {
      "locationText": "中原街",
      "normalizedQuery": "臺北市 中原街",
      "lat": 25.0556686,
      "lng": 121.528884,
      "geocodeProvider": "nominatim",
      "confidence": 0.05340790341039136,
      "geocodedAt": 1781074248107
    },
    {
      "locationText": "中和街",
      "normalizedQuery": "臺北市 中和街",
      "lat": 25.1405111,
      "lng": 121.5002439,
      "geocodeProvider": "nominatim",
      "confidence": 0.05340790341039136,
      "geocodedAt": 1781074250267
    },
    {
      "locationText": "中坡南路",
      "normalizedQuery": "臺北市 中坡南路",
      "lat": 25.042715,
      "lng": 121.5836255,
      "geocodeProvider": "nominatim",
      "confidence": 0.05340790341039136,
      "geocodedAt": 1781074252388
    },
    {
      "locationText": "中央北路三段",
      "normalizedQuery": "臺北市 中央北路三段",
      "lat": 25.1371505,
      "lng": 121.4828379,
      "geocodeProvider": "nominatim",
      "confidence": 0.05340790341039136,
      "geocodedAt": 1781074254441
    },
    {
      "locationText": "中央北路二段",
      "normalizedQuery": "臺北市 中央北路二段",
      "lat": 25.1367273,
      "lng": 121.4957224,
      "geocodeProvider": "nominatim",
      "confidence": 0.05340790341039136,
      "geocodedAt": 1781074256551
    },
    {
      "locationText": "中央北路四段",
      "normalizedQuery": "臺北市 中央北路四段",
      "lat": 25.1314587,
      "lng": 121.4734815,
      "geocodeProvider": "nominatim",
      "confidence": 0.05340790341039136,
      "geocodedAt": 1781074258310
    },
    {
      "locationText": "中山北路一段",
      "normalizedQuery": "臺北市 中山北路一段",
      "lat": 25.0464761,
      "lng": 121.5199941,
      "geocodeProvider": "nominatim",
      "confidence": 0.05340790341039136,
      "geocodedAt": 1781074260502
    },
    {
      "locationText": "中山北路七段",
      "normalizedQuery": "臺北市 中山北路七段",
      "lat": 25.1208556,
      "lng": 121.5313422,
      "geocodeProvider": "nominatim",
      "confidence": 0.05340790341039136,
      "geocodedAt": 1781074262649
    },
    {
      "locationText": "中山北路三段",
      "normalizedQuery": "臺北市 中山北路三段",
      "lat": 25.0718842,
      "lng": 121.5237085,
      "geocodeProvider": "nominatim",
      "confidence": 0.05340790341039136,
      "geocodedAt": 1781074264731
    },
    {
      "locationText": "中山北路二段",
      "normalizedQuery": "臺北市 中山北路二段",
      "lat": 25.0536596,
      "lng": 121.5225186,
      "geocodeProvider": "nominatim",
      "confidence": 0.05340790341039136,
      "geocodedAt": 1781074266441
    },
    {
      "locationText": "中山北路五段",
      "normalizedQuery": "臺北市 中山北路五段",
      "lat": 25.0877616,
      "lng": 121.527172,
      "geocodeProvider": "nominatim",
      "confidence": 0.05340790341039136,
      "geocodedAt": 1781074268694
    },
    {
      "locationText": "中山北路四段",
      "normalizedQuery": "臺北市 中山北路四段",
      "lat": 25.07464,
      "lng": 121.5257194,
      "geocodeProvider": "nominatim",
      "confidence": 0.05340790341039136,
      "geocodedAt": 1781074271059
    },
    {
      "locationText": "中山北路３段",
      "normalizedQuery": "臺北市 中山北路３段",
      "lat": 25.0718534,
      "lng": 121.5238478,
      "geocodeProvider": "nominatim",
      "confidence": 0.05340790341039136,
      "geocodedAt": 1781074273194
    },
    {
      "locationText": "中山南路",
      "normalizedQuery": "臺北市 中山南路",
      "lat": 25.036702,
      "lng": 121.5168699,
      "geocodeProvider": "nominatim",
      "confidence": 0.34566654831183224,
      "geocodedAt": 1781074275449
    },
    {
      "locationText": "中山新橋",
      "normalizedQuery": "臺北市 中山新橋",
      "lat": 24.9855987,
      "lng": 121.4184079,
      "geocodeProvider": "nominatim",
      "confidence": 6.715571831841028e-05,
      "geocodedAt": 1781074277291
    },
    {
      "locationText": "中正路",
      "normalizedQuery": "臺北市 中正路",
      "lat": 25.0952636,
      "lng": 121.5254705,
      "geocodeProvider": "nominatim",
      "confidence": 0.05340790341039136,
      "geocodedAt": 1781074279344
    },
    {
      "locationText": "中興橋",
      "normalizedQuery": "臺北市 中興橋",
      "lat": 25.047328,
      "lng": 121.4956099,
      "geocodeProvider": "nominatim",
      "confidence": 0.30723887866744215,
      "geocodedAt": 1781074281495
    },
    {
      "locationText": "中華路一段",
      "normalizedQuery": "臺北市 中華路一段",
      "lat": 25.0407266,
      "lng": 121.5078028,
      "geocodeProvider": "nominatim",
      "confidence": 0.05340790341039136,
      "geocodedAt": 1781074283236
    },
    {
      "locationText": "中華路二段",
      "normalizedQuery": "臺北市 中華路二段",
      "lat": 25.0366022,
      "lng": 121.5067524,
      "geocodeProvider": "nominatim",
      "confidence": 0.05340790341039136,
      "geocodedAt": 1781074285693
    },
    {
      "locationText": "五分街",
      "normalizedQuery": "臺北市 五分街",
      "lat": 25.0676113,
      "lng": 121.6127903,
      "geocodeProvider": "nominatim",
      "confidence": 0.05340790341039136,
      "geocodedAt": 1781074287798
    },
    {
      "locationText": "仁愛路三段",
      "normalizedQuery": "臺北市 仁愛路三段",
      "lat": 25.0381207,
      "lng": 121.5328767,
      "geocodeProvider": "nominatim",
      "confidence": 0.05340790341039136,
      "geocodedAt": 1781074292225
    },
    {
      "locationText": "仁愛路四段",
      "normalizedQuery": "臺北市 仁愛路四段",
      "lat": 25.0381308,
      "lng": 121.5449042,
      "geocodeProvider": "nominatim",
      "confidence": 0.05340790341039136,
      "geocodedAt": 1781074294353
    },
    {
      "locationText": "仰德大道一段",
      "normalizedQuery": "臺北市 仰德大道一段",
      "lat": 25.1070948,
      "lng": 121.5372354,
      "geocodeProvider": "nominatim",
      "confidence": 0.05340790341039136,
      "geocodedAt": 1781074296859
    },
    {
      "locationText": "仰德大道三段",
      "normalizedQuery": "臺北市 仰德大道三段",
      "lat": 25.1167703,
      "lng": 121.5511607,
      "geocodeProvider": "nominatim",
      "confidence": 0.05340790341039136,
      "geocodedAt": 1781074298859
    },
    {
      "locationText": "仰德大道二段",
      "normalizedQuery": "臺北市 仰德大道二段",
      "lat": 25.1058124,
      "lng": 121.5447894,
      "geocodeProvider": "nominatim",
      "confidence": 0.05340790341039136,
      "geocodedAt": 1781074300792
    },
    {
      "locationText": "伊通街",
      "normalizedQuery": "臺北市 伊通街",
      "lat": 25.0497272,
      "lng": 121.5347623,
      "geocodeProvider": "nominatim",
      "confidence": 0.05340790341039136,
      "geocodedAt": 1781074303395
    },
    {
      "locationText": "保安街",
      "normalizedQuery": "臺北市 保安街",
      "lat": 25.0592947,
      "lng": 121.5142565,
      "geocodeProvider": "nominatim",
      "confidence": 0.05340790341039136,
      "geocodedAt": 1781074305969
    },
    {
      "locationText": "信安街",
      "normalizedQuery": "臺北市 信安街",
      "lat": 25.0255609,
      "lng": 121.5566952,
      "geocodeProvider": "nominatim",
      "confidence": 0.05340790341039136,
      "geocodedAt": 1781074308145
    },
    {
      "locationText": "信義路三段",
      "normalizedQuery": "臺北市 信義路三段",
      "lat": 25.033652,
      "lng": 121.5351864,
      "geocodeProvider": "nominatim",
      "confidence": 0.05340790341039136,
      "geocodedAt": 1781074310935
    },
    {
      "locationText": "信義路二段",
      "normalizedQuery": "臺北市 信義路二段",
      "lat": 25.0347737,
      "lng": 121.5255117,
      "geocodeProvider": "nominatim",
      "confidence": 0.05340790341039136,
      "geocodedAt": 1781074313444
    },
    {
      "locationText": "信義路五段",
      "normalizedQuery": "臺北市 信義路五段",
      "lat": 25.0336356,
      "lng": 121.5745572,
      "geocodeProvider": "nominatim",
      "confidence": 0.05340790341039136,
      "geocodedAt": 1781074316617
    },
    {
      "locationText": "信義路六段",
      "normalizedQuery": "臺北市 信義路六段",
      "lat": 25.0349379,
      "lng": 121.5765026,
      "geocodeProvider": "nominatim",
      "confidence": 0.05340790341039136,
      "geocodedAt": 1781074318667
    },
    {
      "locationText": "信義路四段",
      "normalizedQuery": "臺北市 信義路四段",
      "lat": 25.0332132,
      "lng": 121.5558624,
      "geocodeProvider": "nominatim",
      "confidence": 0.05340790341039136,
      "geocodedAt": 1781074320920
    },
    {
      "locationText": "健康路",
      "normalizedQuery": "臺北市 健康路",
      "lat": 25.0540265,
      "lng": 121.5602011,
      "geocodeProvider": "nominatim",
      "confidence": 0.05340790341039136,
      "geocodedAt": 1781074322974
    },
    {
      "locationText": "光復南路",
      "normalizedQuery": "臺北市 光復南路",
      "lat": 25.0467168,
      "lng": 121.5578486,
      "geocodeProvider": "nominatim",
      "confidence": 0.05340790341039136,
      "geocodedAt": 1781074324992
    },
    {
      "locationText": "光明路",
      "normalizedQuery": "臺北市 光明路",
      "lat": 25.1355701,
      "lng": 121.5029987,
      "geocodeProvider": "nominatim",
      "confidence": 0.05340790341039136,
      "geocodedAt": 1781074327232
    },
    {
      "locationText": "光輝路",
      "normalizedQuery": "臺北市 光輝路",
      "lat": 24.9856747,
      "lng": 121.5543426,
      "geocodeProvider": "nominatim",
      "confidence": 0.05340790341039136,
      "geocodedAt": 1781074329318
    },
    {
      "locationText": "內江街",
      "normalizedQuery": "臺北市 內江街",
      "lat": 25.0416324,
      "lng": 121.5057453,
      "geocodeProvider": "nominatim",
      "confidence": 0.05340790341039136,
      "geocodedAt": 1781074331342
    },
    {
      "locationText": "內湖路一段",
      "normalizedQuery": "臺北市 內湖路一段",
      "lat": 25.0840992,
      "lng": 121.5620498,
      "geocodeProvider": "nominatim",
      "confidence": 0.05340790341039136,
      "geocodedAt": 1781074333513
    },
    {
      "locationText": "內湖路二段",
      "normalizedQuery": "臺北市 內湖路二段",
      "lat": 25.0800919,
      "lng": 121.5835923,
      "geocodeProvider": "nominatim",
      "confidence": 0.05340790341039136,
      "geocodedAt": 1781074338655
    },
    {
      "locationText": "八德路三段",
      "normalizedQuery": "臺北市 八德路三段",
      "lat": 25.0481799,
      "lng": 121.5531142,
      "geocodeProvider": "nominatim",
      "confidence": 0.05340790341039136,
      "geocodedAt": 1781074340604
    },
    {
      "locationText": "八德路二段",
      "normalizedQuery": "臺北市 八德路二段",
      "lat": 25.0449155,
      "lng": 121.5345925,
      "geocodeProvider": "nominatim",
      "confidence": 0.05340790341039136,
      "geocodedAt": 1781074343141
    },
    {
      "locationText": "八德路四段",
      "normalizedQuery": "臺北市 八德路四段",
      "lat": 25.0484355,
      "lng": 121.5603173,
      "geocodeProvider": "nominatim",
      "confidence": 0.05340790341039136,
      "geocodedAt": 1781074345207
    },
    {
      "locationText": "前街",
      "normalizedQuery": "臺北市 前街",
      "lat": 25.09861,
      "lng": 121.5255691,
      "geocodeProvider": "nominatim",
      "confidence": 0.05340790341039136,
      "geocodedAt": 1781074347179
    },
    {
      "locationText": "北安路",
      "normalizedQuery": "臺北市 北安路",
      "lat": 25.0860709,
      "lng": 121.5515143,
      "geocodeProvider": "nominatim",
      "confidence": 0.05340790341039136,
      "geocodedAt": 1781074349353
    },
    {
      "locationText": "北寧路",
      "normalizedQuery": "臺北市 北寧路",
      "lat": 25.0511394,
      "lng": 121.5527413,
      "geocodeProvider": "nominatim",
      "confidence": 0.05340790341039136,
      "geocodedAt": 1781074351368
    },
    {
      "locationText": "北科路",
      "normalizedQuery": "臺北市 北科路",
      "lat": 25.1067105,
      "lng": 121.513938,
      "geocodeProvider": "nominatim",
      "confidence": 0.05340790341039136,
      "geocodedAt": 1781074353573
    },
    {
      "locationText": "南京東路一段",
      "normalizedQuery": "臺北市 南京東路一段",
      "lat": 25.0522032,
      "lng": 121.526054,
      "geocodeProvider": "nominatim",
      "confidence": 0.05340790341039136,
      "geocodedAt": 1781074355607
    },
    {
      "locationText": "南京東路三段",
      "normalizedQuery": "臺北市 南京東路三段",
      "lat": 25.051728,
      "lng": 121.5464147,
      "geocodeProvider": "nominatim",
      "confidence": 0.05340790341039136,
      "geocodedAt": 1781074357571
    },
    {
      "locationText": "南京東路二段",
      "normalizedQuery": "臺北市 南京東路二段",
      "lat": 25.0520845,
      "lng": 121.535668,
      "geocodeProvider": "nominatim",
      "confidence": 0.05340790341039136,
      "geocodedAt": 1781074360138
    },
    {
      "locationText": "南京東路五段",
      "normalizedQuery": "臺北市 南京東路五段",
      "lat": 25.0511644,
      "lng": 121.5693308,
      "geocodeProvider": "nominatim",
      "confidence": 0.05340790341039136,
      "geocodedAt": 1781074362252
    },
    {
      "locationText": "南京東路六段",
      "normalizedQuery": "臺北市 南京東路六段",
      "lat": 25.0541623,
      "lng": 121.5750804,
      "geocodeProvider": "nominatim",
      "confidence": 0.05340790341039136,
      "geocodedAt": 1781074364218
    },
    {
      "locationText": "南京西路",
      "normalizedQuery": "臺北市 南京西路",
      "lat": 25.0534108,
      "lng": 121.5168549,
      "geocodeProvider": "nominatim",
      "confidence": 0.05340790341039136,
      "geocodedAt": 1781074366335
    },
    {
      "locationText": "南寧路",
      "normalizedQuery": "臺北市 南寧路",
      "lat": 25.0359464,
      "lng": 121.5041393,
      "geocodeProvider": "nominatim",
      "confidence": 0.05340790341039136,
      "geocodedAt": 1781074368744
    },
    {
      "locationText": "南海路",
      "normalizedQuery": "臺北市 南海路",
      "lat": 25.0278247,
      "lng": 121.5078727,
      "geocodeProvider": "nominatim",
      "confidence": 0.05340790341039136,
      "geocodedAt": 1781074370483
    },
    {
      "locationText": "南深路",
      "normalizedQuery": "臺北市 南深路",
      "lat": 25.0373314,
      "lng": 121.6207635,
      "geocodeProvider": "nominatim",
      "confidence": 0.05340790341039136,
      "geocodedAt": 1781074372220
    },
    {
      "locationText": "南港路一段",
      "normalizedQuery": "臺北市 南港路一段",
      "lat": 25.0550743,
      "lng": 121.6108746,
      "geocodeProvider": "nominatim",
      "confidence": 0.05340790341039136,
      "geocodedAt": 1781074374316
    },
    {
      "locationText": "南港路三段",
      "normalizedQuery": "臺北市 南港路三段",
      "lat": 25.0543841,
      "lng": 121.59298,
      "geocodeProvider": "nominatim",
      "confidence": 0.05340790341039136,
      "geocodedAt": 1781074375986
    },
    {
      "locationText": "南港路二段",
      "normalizedQuery": "臺北市 南港路二段",
      "lat": 25.0544721,
      "lng": 121.5941981,
      "geocodeProvider": "nominatim",
      "confidence": 0.05340790341039136,
      "geocodedAt": 1781074377755
    },
    {
      "locationText": "南湖大橋",
      "normalizedQuery": "臺北市 南湖大橋",
      "lat": 25.0628965,
      "lng": 121.6120616,
      "geocodeProvider": "nominatim",
      "confidence": 0.05340790341039136,
      "geocodedAt": 1781074379492
    },
    {
      "locationText": "台北橋機車道",
      "normalizedQuery": "臺北市 台北橋機車道",
      "lat": 25.0304407,
      "lng": 121.4879505,
      "geocodeProvider": "nominatim",
      "confidence": 0.04007457007705805,
      "geocodedAt": 1781074383793
    },
    {
      "locationText": "合江街",
      "normalizedQuery": "臺北市 合江街",
      "lat": 25.057273,
      "lng": 121.5391556,
      "geocodeProvider": "nominatim",
      "confidence": 0.05340790341039136,
      "geocodedAt": 1781074385887
    },
    {
      "locationText": "吉林路",
      "normalizedQuery": "臺北市 吉林路",
      "lat": 25.0500274,
      "lng": 121.5300457,
      "geocodeProvider": "nominatim",
      "confidence": 0.05340790341039136,
      "geocodedAt": 1781074387987
    },
    {
      "locationText": "同安街",
      "normalizedQuery": "臺北市 同安街",
      "lat": 25.0245245,
      "lng": 121.5220233,
      "geocodeProvider": "nominatim",
      "confidence": 0.05340790341039136,
      "geocodedAt": 1781074390142
    },
    {
      "locationText": "同德路",
      "normalizedQuery": "臺北市 同德路",
      "lat": 25.0455803,
      "lng": 121.5848284,
      "geocodeProvider": "nominatim",
      "confidence": 0.05340790341039136,
      "geocodedAt": 1781074392257
    },
    {
      "locationText": "向陽路",
      "normalizedQuery": "臺北市 向陽路",
      "lat": 25.052082,
      "lng": 121.5952877,
      "geocodeProvider": "nominatim",
      "confidence": 0.05340790341039136,
      "geocodedAt": 1781074393936
    },
    {
      "locationText": "吳興街",
      "normalizedQuery": "臺北市 吳興街",
      "lat": 25.0312683,
      "lng": 121.559989,
      "geocodeProvider": "nominatim",
      "confidence": 0.05340790341039136,
      "geocodedAt": 1781074395679
    },
    {
      "locationText": "和平東路一段",
      "normalizedQuery": "臺北市 和平東路一段",
      "lat": 25.0270164,
      "lng": 121.524177,
      "geocodeProvider": "nominatim",
      "confidence": 0.34223694096820295,
      "geocodedAt": 1781074397822
    },
    {
      "locationText": "和平東路三段",
      "normalizedQuery": "臺北市 和平東路三段",
      "lat": 25.0109102,
      "lng": 121.5639627,
      "geocodeProvider": "nominatim",
      "confidence": 0.05340790341039136,
      "geocodedAt": 1781074399942
    },
    {
      "locationText": "和平西路一段",
      "normalizedQuery": "臺北市 和平西路一段",
      "lat": 25.0266515,
      "lng": 121.5199906,
      "geocodeProvider": "nominatim",
      "confidence": 0.05340790341039136,
      "geocodedAt": 1781074404275
    },
    {
      "locationText": "和平西路三段",
      "normalizedQuery": "臺北市 和平西路三段",
      "lat": 25.0344353,
      "lng": 121.5040473,
      "geocodeProvider": "nominatim",
      "confidence": 0.05340790341039136,
      "geocodedAt": 1781074406424
    },
    {
      "locationText": "和平西路二段",
      "normalizedQuery": "臺北市 和平西路二段",
      "lat": 25.03185,
      "lng": 121.5072031,
      "geocodeProvider": "nominatim",
      "confidence": 0.05340790341039136,
      "geocodedAt": 1781074410931
    },
    {
      "locationText": "和興路",
      "normalizedQuery": "臺北市 和興路",
      "lat": 24.9853741,
      "lng": 121.5501812,
      "geocodeProvider": "nominatim",
      "confidence": 0.05340790341039136,
      "geocodedAt": 1781074412686
    },
    {
      "locationText": "和豐街",
      "normalizedQuery": "臺北市 和豐街",
      "lat": 25.0826574,
      "lng": 121.5182571,
      "geocodeProvider": "nominatim",
      "confidence": 0.05340790341039136,
      "geocodedAt": 1781074415893
    },
    {
      "locationText": "嘉興街",
      "normalizedQuery": "臺北市 嘉興街",
      "lat": 25.0234369,
      "lng": 121.5547339,
      "geocodeProvider": "nominatim",
      "confidence": 0.05340790341039136,
      "geocodedAt": 1781074417612
    },
    {
      "locationText": "四維路",
      "normalizedQuery": "臺北市 四維路",
      "lat": 25.0268474,
      "lng": 121.5479794,
      "geocodeProvider": "nominatim",
      "confidence": 0.05340790341039136,
      "geocodedAt": 1781074419277
    },
    {
      "locationText": "國興路",
      "normalizedQuery": "臺北市 國興路",
      "lat": 25.0246343,
      "lng": 121.5078448,
      "geocodeProvider": "nominatim",
      "confidence": 0.05340790341039136,
      "geocodedAt": 1781074420967
    },
    {
      "locationText": "基河路",
      "normalizedQuery": "臺北市 基河路",
      "lat": 25.088895,
      "lng": 121.5233549,
      "geocodeProvider": "nominatim",
      "confidence": 0.05340790341039136,
      "geocodedAt": 1781074437860
    },
    {
      "locationText": "基湖路",
      "normalizedQuery": "臺北市 基湖路",
      "lat": 25.0787723,
      "lng": 121.5642097,
      "geocodeProvider": "nominatim",
      "confidence": 0.05340790341039136,
      "geocodedAt": 1781074439603
    },
    {
      "locationText": "基隆路一段",
      "normalizedQuery": "臺北市 基隆路一段",
      "lat": 25.0503085,
      "lng": 121.5700749,
      "geocodeProvider": "nominatim",
      "confidence": 0.05340790341039136,
      "geocodedAt": 1781074441784
    },
    {
      "locationText": "基隆路三段",
      "normalizedQuery": "臺北市 基隆路三段",
      "lat": 25.0199751,
      "lng": 121.5477893,
      "geocodeProvider": "nominatim",
      "confidence": 0.05340790341039136,
      "geocodedAt": 1781074443435
    },
    {
      "locationText": "基隆路二段",
      "normalizedQuery": "臺北市 基隆路二段",
      "lat": 25.0284909,
      "lng": 121.5569325,
      "geocodeProvider": "nominatim",
      "confidence": 0.05340790341039136,
      "geocodedAt": 1781074445543
    },
    {
      "locationText": "基隆路四段",
      "normalizedQuery": "臺北市 基隆路四段",
      "lat": 25.0112799,
      "lng": 121.5371351,
      "geocodeProvider": "nominatim",
      "confidence": 0.05340790341039136,
      "geocodedAt": 1781074447904
    },
    {
      "locationText": "基隆路車行地下道",
      "normalizedQuery": "臺北市 基隆路車行地下道",
      "lat": 25.0422111,
      "lng": 121.5650634,
      "geocodeProvider": "nominatim",
      "confidence": 0.05340790341039136,
      "geocodedAt": 1781074452096
    },
    {
      "locationText": "堤外便道",
      "normalizedQuery": "臺北市 堤外便道",
      "lat": 22.4473711,
      "lng": 114.0269226,
      "geocodeProvider": "nominatim",
      "confidence": 6.549095902948069e-05,
      "geocodedAt": 1781074455170
    },
    {
      "locationText": "堤頂大道一段",
      "normalizedQuery": "臺北市 堤頂大道一段",
      "lat": 25.074448,
      "lng": 121.5724407,
      "geocodeProvider": "nominatim",
      "confidence": 0.05340790341039136,
      "geocodedAt": 1781074474235
    },
    {
      "locationText": "堤頂大道二段",
      "normalizedQuery": "臺北市 堤頂大道二段",
      "lat": 25.0823874,
      "lng": 121.5617277,
      "geocodeProvider": "nominatim",
      "confidence": 0.05340790341039136,
      "geocodedAt": 1781074475954
    },
    {
      "locationText": "塔城街",
      "normalizedQuery": "臺北市 塔城街",
      "lat": 25.0492317,
      "lng": 121.510277,
      "geocodeProvider": "nominatim",
      "confidence": 0.05340790341039136,
      "geocodedAt": 1781074478353
    },
    {
      "locationText": "塔悠路",
      "normalizedQuery": "臺北市 塔悠路",
      "lat": 25.0614865,
      "lng": 121.5686989,
      "geocodeProvider": "nominatim",
      "confidence": 0.05340790341039136,
      "geocodedAt": 1781074480108
    },
    {
      "locationText": "大南路",
      "normalizedQuery": "臺北市 大南路",
      "lat": 25.0885039,
      "lng": 121.5207211,
      "geocodeProvider": "nominatim",
      "confidence": 0.05340790341039136,
      "geocodedAt": 1781074482509
    },
    {
      "locationText": "大安路一段",
      "normalizedQuery": "臺北市 大安路一段",
      "lat": 25.0432575,
      "lng": 121.5461836,
      "geocodeProvider": "nominatim",
      "confidence": 0.05340790341039136,
      "geocodedAt": 1781074484665
    },
    {
      "locationText": "大度路",
      "normalizedQuery": "臺北市 大度路",
      "lat": 25.1218813,
      "lng": 121.4860757,
      "geocodeProvider": "nominatim",
      "confidence": 0.05340790341039136,
      "geocodedAt": 1781074486263
    },
    {
      "locationText": "大度路一段",
      "normalizedQuery": "臺北市 大度路一段",
      "lat": 25.1218677,
      "lng": 121.4891053,
      "geocodeProvider": "nominatim",
      "confidence": 0.05340790341039136,
      "geocodedAt": 1781074488451
    },
    {
      "locationText": "大度路三段",
      "normalizedQuery": "臺北市 大度路三段",
      "lat": 25.1229627,
      "lng": 121.4694513,
      "geocodeProvider": "nominatim",
      "confidence": 0.05340790341039136,
      "geocodedAt": 1781074493773
    },
    {
      "locationText": "大業路",
      "normalizedQuery": "臺北市 大業路",
      "lat": 25.1235962,
      "lng": 121.4992698,
      "geocodeProvider": "nominatim",
      "confidence": 0.05340790341039136,
      "geocodedAt": 1781074495513
    },
    {
      "locationText": "大湖山莊街",
      "normalizedQuery": "臺北市 大湖山莊街",
      "lat": 25.088283,
      "lng": 121.5989197,
      "geocodeProvider": "nominatim",
      "confidence": 0.05340790341039136,
      "geocodedAt": 1781074499304
    },
    {
      "locationText": "大湖街",
      "normalizedQuery": "臺北市 大湖街",
      "lat": 25.0960205,
      "lng": 121.6058394,
      "geocodeProvider": "nominatim",
      "confidence": 0.05340790341039136,
      "geocodedAt": 1781074500972
    },
    {
      "locationText": "大理街",
      "normalizedQuery": "臺北市 大理街",
      "lat": 25.0340843,
      "lng": 121.4963684,
      "geocodeProvider": "nominatim",
      "confidence": 0.05340790341039136,
      "geocodedAt": 1781074503091
    },
    {
      "locationText": "大直街",
      "normalizedQuery": "臺北市 大直街",
      "lat": 25.0833799,
      "lng": 121.5463363,
      "geocodeProvider": "nominatim",
      "confidence": 0.05340790341039136,
      "geocodedAt": 1781074505200
    },
    {
      "locationText": "大興街",
      "normalizedQuery": "臺北市 大興街",
      "lat": 25.1304774,
      "lng": 121.5003939,
      "geocodeProvider": "nominatim",
      "confidence": 0.05340790341039136,
      "geocodedAt": 1781074508928
    },
    {
      "locationText": "大龍街",
      "normalizedQuery": "臺北市 大龍街",
      "lat": 25.0687228,
      "lng": 121.5158785,
      "geocodeProvider": "nominatim",
      "confidence": 0.05340790341039136,
      "geocodedAt": 1781074511182
    },
    {
      "locationText": "安和路二段",
      "normalizedQuery": "臺北市 安和路二段",
      "lat": 25.0308137,
      "lng": 121.5523793,
      "geocodeProvider": "nominatim",
      "confidence": 0.05340790341039136,
      "geocodedAt": 1781074513436
    },
    {
      "locationText": "安康路",
      "normalizedQuery": "臺北市 安康路",
      "lat": 25.0629137,
      "lng": 121.5993186,
      "geocodeProvider": "nominatim",
      "confidence": 0.05340790341039136,
      "geocodedAt": 1781074515587
    },
    {
      "locationText": "安東街",
      "normalizedQuery": "臺北市 安東街",
      "lat": 25.0430936,
      "lng": 121.542468,
      "geocodeProvider": "nominatim",
      "confidence": 0.05340790341039136,
      "geocodedAt": 1781074517328
    },
    {
      "locationText": "安泰街",
      "normalizedQuery": "臺北市 安泰街",
      "lat": 25.0885842,
      "lng": 121.6137976,
      "geocodeProvider": "nominatim",
      "confidence": 0.05340790341039136,
      "geocodedAt": 1781074519479
    },
    {
      "locationText": "安美街",
      "normalizedQuery": "臺北市 安美街",
      "lat": 25.0599746,
      "lng": 121.6003606,
      "geocodeProvider": "nominatim",
      "confidence": 0.05340790341039136,
      "geocodedAt": 1781074521627
    },
    {
      "locationText": "富民路",
      "normalizedQuery": "臺北市 富民路",
      "lat": 25.018616,
      "lng": 121.4987478,
      "geocodeProvider": "nominatim",
      "confidence": 0.05340790341039136,
      "geocodedAt": 1781074523779
    },
    {
      "locationText": "實踐街",
      "normalizedQuery": "臺北市 實踐街",
      "lat": 25.1152747,
      "lng": 121.5106856,
      "geocodeProvider": "nominatim",
      "confidence": 0.05340790341039136,
      "geocodedAt": 1781074525928
    },
    {
      "locationText": "寧夏路",
      "normalizedQuery": "臺北市 寧夏路",
      "lat": 25.061311,
      "lng": 121.5141822,
      "geocodeProvider": "nominatim",
      "confidence": 0.05340790341039136,
      "geocodedAt": 1781074527670
    },
    {
      "locationText": "寧波東街",
      "normalizedQuery": "臺北市 寧波東街",
      "lat": 25.0323195,
      "lng": 121.5199241,
      "geocodeProvider": "nominatim",
      "confidence": 0.05340790341039136,
      "geocodedAt": 1781074529718
    },
    {
      "locationText": "寧波西街",
      "normalizedQuery": "臺北市 寧波西街",
      "lat": 25.0263186,
      "lng": 121.510669,
      "geocodeProvider": "nominatim",
      "confidence": 0.05340790341039136,
      "geocodedAt": 1781074531868
    },
    {
      "locationText": "寶興街",
      "normalizedQuery": "臺北市 寶興街",
      "lat": 25.0266715,
      "lng": 121.493955,
      "geocodeProvider": "nominatim",
      "confidence": 0.05340790341039136,
      "geocodedAt": 1781074533915
    },
    {
      "locationText": "尊賢街",
      "normalizedQuery": "臺北市 尊賢街",
      "lat": 25.1158344,
      "lng": 121.5078101,
      "geocodeProvider": "nominatim",
      "confidence": 0.05340790341039136,
      "geocodedAt": 1781074536578
    },
    {
      "locationText": "崇仁路一段",
      "normalizedQuery": "臺北市 崇仁路一段",
      "lat": 25.1275463,
      "lng": 121.5013317,
      "geocodeProvider": "nominatim",
      "confidence": 0.05340790341039136,
      "geocodedAt": 1781074538647
    },
    {
      "locationText": "市民大道一段",
      "normalizedQuery": "臺北市 市民大道一段",
      "lat": 25.0483732,
      "lng": 121.5196657,
      "geocodeProvider": "nominatim",
      "confidence": 0.05340790341039136,
      "geocodedAt": 1781074540762
    },
    {
      "locationText": "市民大道七段",
      "normalizedQuery": "臺北市 市民大道七段",
      "lat": 25.0505386,
      "lng": 121.5896382,
      "geocodeProvider": "nominatim",
      "confidence": 0.05340790341039136,
      "geocodedAt": 1781074544146
    },
    {
      "locationText": "市民大道三段",
      "normalizedQuery": "臺北市 市民大道三段",
      "lat": 25.0447165,
      "lng": 121.5357089,
      "geocodeProvider": "nominatim",
      "confidence": 0.05340790341039136,
      "geocodedAt": 1781074545897
    },
    {
      "locationText": "市民大道二段",
      "normalizedQuery": "臺北市 市民大道二段",
      "lat": 25.0471096,
      "lng": 121.5274687,
      "geocodeProvider": "nominatim",
      "confidence": 0.05340790341039136,
      "geocodedAt": 1781074548141
    },
    {
      "locationText": "市民大道五段",
      "normalizedQuery": "臺北市 市民大道五段",
      "lat": 25.047513,
      "lng": 121.563821,
      "geocodeProvider": "nominatim",
      "confidence": 0.05340790341039136,
      "geocodedAt": 1781074551547
    },
    {
      "locationText": "市民大道八段",
      "normalizedQuery": "臺北市 市民大道八段",
      "lat": 25.0533067,
      "lng": 121.6075113,
      "geocodeProvider": "nominatim",
      "confidence": 0.05340790341039136,
      "geocodedAt": 1781074553146
    },
    {
      "locationText": "市民大道六段",
      "normalizedQuery": "臺北市 市民大道六段",
      "lat": 25.0494941,
      "lng": 121.5789449,
      "geocodeProvider": "nominatim",
      "confidence": 0.05340790341039136,
      "geocodedAt": 1781074555129
    },
    {
      "locationText": "市民大道四段",
      "normalizedQuery": "臺北市 市民大道四段",
      "lat": 25.045224,
      "lng": 121.5577545,
      "geocodeProvider": "nominatim",
      "confidence": 0.05340790341039136,
      "geocodedAt": 1781074557473
    },
    {
      "locationText": "市民大道２段",
      "normalizedQuery": "臺北市 市民大道２段",
      "lat": 25.0471096,
      "lng": 121.5274687,
      "geocodeProvider": "nominatim",
      "confidence": 0.05340790341039136,
      "geocodedAt": 1781074559622
    },
    {
      "locationText": "市民大道５段",
      "normalizedQuery": "臺北市 市民大道５段",
      "lat": 25.047513,
      "lng": 121.563821,
      "geocodeProvider": "nominatim",
      "confidence": 0.05340790341039136,
      "geocodedAt": 1781074561771
    },
    {
      "locationText": "康定路",
      "normalizedQuery": "臺北市 康定路",
      "lat": 25.0411114,
      "lng": 121.5021818,
      "geocodeProvider": "nominatim",
      "confidence": 0.05340790341039136,
      "geocodedAt": 1781074564023
    },
    {
      "locationText": "康寧路",
      "normalizedQuery": "臺北市 康寧路",
      "lat": 25.07535,
      "lng": 121.60132,
      "geocodeProvider": "nominatim",
      "confidence": 7.457007705801507e-05,
      "geocodedAt": 1781074565660
    },
    {
      "locationText": "康寧路三段",
      "normalizedQuery": "臺北市 康寧路三段",
      "lat": 25.0725951,
      "lng": 121.6072763,
      "geocodeProvider": "nominatim",
      "confidence": 0.05340790341039136,
      "geocodedAt": 1781074567740
    },
    {
      "locationText": "康樂街",
      "normalizedQuery": "臺北市 康樂街",
      "lat": 25.068761,
      "lng": 121.618418,
      "geocodeProvider": "nominatim",
      "confidence": 0.05340790341039136,
      "geocodedAt": 1781074569433
    },
    {
      "locationText": "廈門街",
      "normalizedQuery": "臺北市 廈門街",
      "lat": 25.026447,
      "lng": 121.5178804,
      "geocodeProvider": "nominatim",
      "confidence": 0.05340790341039136,
      "geocodedAt": 1781074571604
    },
    {
      "locationText": "廣州街",
      "normalizedQuery": "臺北市 廣州街",
      "lat": 25.0367643,
      "lng": 121.4969419,
      "geocodeProvider": "nominatim",
      "confidence": 0.05340790341039136,
      "geocodedAt": 1781074573444
    },
    {
      "locationText": "延吉街",
      "normalizedQuery": "臺北市 延吉街",
      "lat": 25.0440777,
      "lng": 121.5534162,
      "geocodeProvider": "nominatim",
      "confidence": 0.05340790341039136,
      "geocodedAt": 1781074575595
    },
    {
      "locationText": "延平北路一段",
      "normalizedQuery": "臺北市 延平北路一段",
      "lat": 25.0489595,
      "lng": 121.5116395,
      "geocodeProvider": "nominatim",
      "confidence": 0.05340790341039136,
      "geocodedAt": 1781074577743
    },
    {
      "locationText": "延平北路七段",
      "normalizedQuery": "臺北市 延平北路七段",
      "lat": 25.1007798,
      "lng": 121.4902192,
      "geocodeProvider": "nominatim",
      "confidence": 0.05340790341039136,
      "geocodedAt": 1781074579847
    },
    {
      "locationText": "延平北路三段",
      "normalizedQuery": "臺北市 延平北路三段",
      "lat": 25.0651341,
      "lng": 121.5110729,
      "geocodeProvider": "nominatim",
      "confidence": 0.05340790341039136,
      "geocodedAt": 1781074582118
    },
    {
      "locationText": "延平北路二段",
      "normalizedQuery": "臺北市 延平北路二段",
      "lat": 25.0554073,
      "lng": 121.5116684,
      "geocodeProvider": "nominatim",
      "confidence": 0.05340790341039136,
      "geocodedAt": 1781074584192
    },
    {
      "locationText": "延平北路五段",
      "normalizedQuery": "臺北市 延平北路五段",
      "lat": 25.0853605,
      "lng": 121.5097525,
      "geocodeProvider": "nominatim",
      "confidence": 0.05340790341039136,
      "geocodedAt": 1781074586241
    },
    {
      "locationText": "延平北路八段",
      "normalizedQuery": "臺北市 延平北路八段",
      "lat": 25.1059315,
      "lng": 121.4831416,
      "geocodeProvider": "nominatim",
      "confidence": 0.05340790341039136,
      "geocodedAt": 1781074588292
    },
    {
      "locationText": "延平北路六段",
      "normalizedQuery": "臺北市 延平北路六段",
      "lat": 25.0874449,
      "lng": 121.5090499,
      "geocodeProvider": "nominatim",
      "confidence": 0.05340790341039136,
      "geocodedAt": 1781074590293
    },
    {
      "locationText": "延平北路四段",
      "normalizedQuery": "臺北市 延平北路四段",
      "lat": 25.0777539,
      "lng": 121.511904,
      "geocodeProvider": "nominatim",
      "confidence": 0.05340790341039136,
      "geocodedAt": 1781074592696
    },
    {
      "locationText": "延平南路",
      "normalizedQuery": "臺北市 延平南路",
      "lat": 25.0342487,
      "lng": 121.5075012,
      "geocodeProvider": "nominatim",
      "confidence": 0.05340790341039136,
      "geocodedAt": 1781074594339
    },
    {
      "locationText": "建國北路三段",
      "normalizedQuery": "臺北市 建國北路三段",
      "lat": 25.0649893,
      "lng": 121.5370562,
      "geocodeProvider": "nominatim",
      "confidence": 0.05340790341039136,
      "geocodedAt": 1781074596437
    },
    {
      "locationText": "建國北路二段",
      "normalizedQuery": "臺北市 建國北路二段",
      "lat": 25.0562886,
      "lng": 121.5366782,
      "geocodeProvider": "nominatim",
      "confidence": 0.05340790341039136,
      "geocodedAt": 1781074598154
    },
    {
      "locationText": "建國南路一段",
      "normalizedQuery": "臺北市 建國南路一段",
      "lat": 25.045448,
      "lng": 121.536386,
      "geocodeProvider": "nominatim",
      "confidence": 0.05340790341039136,
      "geocodedAt": 1781074600210
    },
    {
      "locationText": "建國南路二段",
      "normalizedQuery": "臺北市 建國南路二段",
      "lat": 25.032851,
      "lng": 121.5375681,
      "geocodeProvider": "nominatim",
      "confidence": 0.05340790341039136,
      "geocodedAt": 1781074602423
    },
    {
      "locationText": "建國高架橋",
      "normalizedQuery": "臺北市 建國高架橋",
      "lat": 24.9572259,
      "lng": 121.3414924,
      "geocodeProvider": "nominatim",
      "confidence": 0.053400489051651755,
      "geocodedAt": 1781074606342
    },
    {
      "locationText": "復興北路",
      "normalizedQuery": "臺北市 復興北路",
      "lat": 25.0610768,
      "lng": 121.5441377,
      "geocodeProvider": "nominatim",
      "confidence": 0.05340790341039136,
      "geocodedAt": 1781074608558
    },
    {
      "locationText": "復興北路地下道",
      "normalizedQuery": "臺北市 復興北路地下道",
      "lat": 25.0262861,
      "lng": 121.5430868,
      "geocodeProvider": "nominatim",
      "confidence": 7.457007705801507e-05,
      "geocodedAt": 1781074610530
    },
    {
      "locationText": "復興南路一段",
      "normalizedQuery": "臺北市 復興南路一段",
      "lat": 25.0416199,
      "lng": 121.5438387,
      "geocodeProvider": "nominatim",
      "confidence": 0.05340790341039136,
      "geocodedAt": 1781074612665
    },
    {
      "locationText": "德惠街",
      "normalizedQuery": "臺北市 德惠街",
      "lat": 25.0666922,
      "lng": 121.5249992,
      "geocodeProvider": "nominatim",
      "confidence": 0.05340790341039136,
      "geocodedAt": 1781074614412
    },
    {
      "locationText": "德昌街",
      "normalizedQuery": "臺北市 德昌街",
      "lat": 25.0240416,
      "lng": 121.4962783,
      "geocodeProvider": "nominatim",
      "confidence": 0.05340790341039136,
      "geocodedAt": 1781074616086
    },
    {
      "locationText": "忠孝東路一段",
      "normalizedQuery": "臺北市 忠孝東路一段",
      "lat": 25.0450826,
      "lng": 121.5225074,
      "geocodeProvider": "nominatim",
      "confidence": 0.05340790341039136,
      "geocodedAt": 1781074617784
    },
    {
      "locationText": "忠孝東路七段",
      "normalizedQuery": "臺北市 忠孝東路七段",
      "lat": 25.0521746,
      "lng": 121.6072019,
      "geocodeProvider": "nominatim",
      "confidence": 0.05340790341039136,
      "geocodedAt": 1781074619522
    },
    {
      "locationText": "忠孝東路三段",
      "normalizedQuery": "臺北市 忠孝東路三段",
      "lat": 25.041818,
      "lng": 121.5368389,
      "geocodeProvider": "nominatim",
      "confidence": 0.05340790341039136,
      "geocodedAt": 1781074621634
    },
    {
      "locationText": "忠孝東路二段",
      "normalizedQuery": "臺北市 忠孝東路二段",
      "lat": 25.0426817,
      "lng": 121.5317691,
      "geocodeProvider": "nominatim",
      "confidence": 0.05340790341039136,
      "geocodedAt": 1781074623826
    },
    {
      "locationText": "忠孝東路五段",
      "normalizedQuery": "臺北市 忠孝東路五段",
      "lat": 25.0448112,
      "lng": 121.5822806,
      "geocodeProvider": "nominatim",
      "confidence": 0.05340790341039136,
      "geocodedAt": 1781074625533
    },
    {
      "locationText": "忠孝東路六段",
      "normalizedQuery": "臺北市 忠孝東路六段",
      "lat": 25.0489915,
      "lng": 121.5881605,
      "geocodeProvider": "nominatim",
      "confidence": 0.05340790341039136,
      "geocodedAt": 1781074628695
    },
    {
      "locationText": "忠孝東路四段",
      "normalizedQuery": "臺北市 忠孝東路四段",
      "lat": 25.0411329,
      "lng": 121.5629595,
      "geocodeProvider": "nominatim",
      "confidence": 0.05340790341039136,
      "geocodedAt": 1781074630457
    },
    {
      "locationText": "忠孝橋",
      "normalizedQuery": "臺北市 忠孝橋",
      "lat": 25.0487352,
      "lng": 121.5069087,
      "geocodeProvider": "nominatim",
      "confidence": 0.05340790341039136,
      "geocodedAt": 1781074632610
    },
    {
      "locationText": "忠孝橋下",
      "normalizedQuery": "臺北市 忠孝橋下",
      "lat": 24.9900986,
      "lng": 121.5321967,
      "geocodeProvider": "nominatim",
      "confidence": 7.457007705801507e-05,
      "geocodedAt": 1781074634413
    },
    {
      "locationText": "忠孝西路",
      "normalizedQuery": "臺北市 忠孝西路",
      "lat": 25.0457091,
      "lng": 121.5194916,
      "geocodeProvider": "nominatim",
      "confidence": 0.05340790341039136,
      "geocodedAt": 1781074636627
    },
    {
      "locationText": "忠孝西路一段",
      "normalizedQuery": "臺北市 忠孝西路一段",
      "lat": 25.0461392,
      "lng": 121.5178683,
      "geocodeProvider": "nominatim",
      "confidence": 0.05340790341039136,
      "geocodedAt": 1781074638741
    },
    {
      "locationText": "忠孝西路二段",
      "normalizedQuery": "臺北市 忠孝西路二段",
      "lat": 25.04842,
      "lng": 121.5088211,
      "geocodeProvider": "nominatim",
      "confidence": 0.05340790341039136,
      "geocodedAt": 1781074640928
    },
    {
      "locationText": "忠順街二段",
      "normalizedQuery": "臺北市 忠順街二段",
      "lat": 24.9849173,
      "lng": 121.5642659,
      "geocodeProvider": "nominatim",
      "confidence": 0.05340790341039136,
      "geocodedAt": 1781074643146
    },
    {
      "locationText": "思源街",
      "normalizedQuery": "臺北市 思源街",
      "lat": 25.0141889,
      "lng": 121.5311573,
      "geocodeProvider": "nominatim",
      "confidence": 0.05340790341039136,
      "geocodedAt": 1781074644792
    },
    {
      "locationText": "懷寧街",
      "normalizedQuery": "臺北市 懷寧街",
      "lat": 25.0416309,
      "lng": 121.5140395,
      "geocodeProvider": "nominatim",
      "confidence": 0.05340790341039136,
      "geocodedAt": 1781074646559
    },
    {
      "locationText": "成功路三段",
      "normalizedQuery": "臺北市 成功路三段",
      "lat": 25.0799193,
      "lng": 121.5902022,
      "geocodeProvider": "nominatim",
      "confidence": 0.05340790341039136,
      "geocodedAt": 1781074648506
    },
    {
      "locationText": "成功路二段",
      "normalizedQuery": "臺北市 成功路二段",
      "lat": 25.0702266,
      "lng": 121.5903936,
      "geocodeProvider": "nominatim",
      "confidence": 0.05340790341039136,
      "geocodedAt": 1781074650764
    },
    {
      "locationText": "成功路五段",
      "normalizedQuery": "臺北市 成功路五段",
      "lat": 25.0829455,
      "lng": 121.6044759,
      "geocodeProvider": "nominatim",
      "confidence": 0.05340790341039136,
      "geocodedAt": 1781074654844
    },
    {
      "locationText": "成功路四段",
      "normalizedQuery": "臺北市 成功路四段",
      "lat": 25.0825506,
      "lng": 121.592924,
      "geocodeProvider": "nominatim",
      "confidence": 0.05340790341039136,
      "geocodedAt": 1781074656534
    },
    {
      "locationText": "成都路",
      "normalizedQuery": "臺北市 成都路",
      "lat": 25.0439497,
      "lng": 121.5014411,
      "geocodeProvider": "nominatim",
      "confidence": 0.05340790341039136,
      "geocodedAt": 1781074658708
    },
    {
      "locationText": "承德橋上",
      "normalizedQuery": "臺北市 承德橋上",
      "lat": 25.0494981,
      "lng": 121.5307076,
      "geocodeProvider": "nominatim",
      "confidence": 0.33557113795112237,
      "geocodedAt": 1781074660384
    },
    {
      "locationText": "承德路一段",
      "normalizedQuery": "臺北市 承德路一段",
      "lat": 25.0492529,
      "lng": 121.5166542,
      "geocodeProvider": "nominatim",
      "confidence": 0.05340790341039136,
      "geocodedAt": 1781074662548
    },
    {
      "locationText": "承德路七段",
      "normalizedQuery": "臺北市 承德路七段",
      "lat": 25.1162067,
      "lng": 121.505025,
      "geocodeProvider": "nominatim",
      "confidence": 0.05340790341039136,
      "geocodedAt": 1781074664581
    },
    {
      "locationText": "承德路三段",
      "normalizedQuery": "臺北市 承德路三段",
      "lat": 25.0751864,
      "lng": 121.5202212,
      "geocodeProvider": "nominatim",
      "confidence": 0.05340790341039136,
      "geocodedAt": 1781074666224
    },
    {
      "locationText": "承德路二段",
      "normalizedQuery": "臺北市 承德路二段",
      "lat": 25.0600848,
      "lng": 121.5183019,
      "geocodeProvider": "nominatim",
      "confidence": 0.05340790341039136,
      "geocodedAt": 1781074672676
    },
    {
      "locationText": "承德路五段",
      "normalizedQuery": "臺北市 承德路五段",
      "lat": 25.0940455,
      "lng": 121.5149613,
      "geocodeProvider": "nominatim",
      "confidence": 0.05340790341039136,
      "geocodedAt": 1781074674515
    },
    {
      "locationText": "承德路六段",
      "normalizedQuery": "臺北市 承德路六段",
      "lat": 25.1074606,
      "lng": 121.5118047,
      "geocodeProvider": "nominatim",
      "confidence": 0.05340790341039136,
      "geocodedAt": 1781074676621
    },
    {
      "locationText": "承德路四段",
      "normalizedQuery": "臺北市 承德路四段",
      "lat": 25.0866473,
      "lng": 121.5228216,
      "geocodeProvider": "nominatim",
      "confidence": 0.05340790341039136,
      "geocodedAt": 1781074678510
    },
    {
      "locationText": "指南路二段",
      "normalizedQuery": "臺北市 指南路二段",
      "lat": 24.9872562,
      "lng": 121.5777033,
      "geocodeProvider": "nominatim",
      "confidence": 0.05340790341039136,
      "geocodedAt": 1781074680659
    },
    {
      "locationText": "政大一街",
      "normalizedQuery": "臺北市 政大一街",
      "lat": 24.9851211,
      "lng": 121.5808983,
      "geocodeProvider": "nominatim",
      "confidence": 0.05340790341039136,
      "geocodedAt": 1781074682218
    },
    {
      "locationText": "敦化北路",
      "normalizedQuery": "臺北市 敦化北路",
      "lat": 25.0574882,
      "lng": 121.5487607,
      "geocodeProvider": "nominatim",
      "confidence": 0.05340790341039136,
      "geocodedAt": 1781074683982
    },
    {
      "locationText": "敦化南路一段",
      "normalizedQuery": "臺北市 敦化南路一段",
      "lat": 25.0421024,
      "lng": 121.5488732,
      "geocodeProvider": "nominatim",
      "confidence": 0.05340790341039136,
      "geocodedAt": 1781074686290
    },
    {
      "locationText": "敦化南路二段",
      "normalizedQuery": "臺北市 敦化南路二段",
      "lat": 25.0290432,
      "lng": 121.548763,
      "geocodeProvider": "nominatim",
      "confidence": 0.05340790341039136,
      "geocodedAt": 1781074688454
    },
    {
      "locationText": "敦煌路",
      "normalizedQuery": "臺北市 敦煌路",
      "lat": 25.0754887,
      "lng": 121.5188811,
      "geocodeProvider": "nominatim",
      "confidence": 0.05340790341039136,
      "geocodedAt": 1781074690592
    },
    {
      "locationText": "敬業四路",
      "normalizedQuery": "臺北市 敬業四路",
      "lat": 25.0832731,
      "lng": 121.5585435,
      "geocodeProvider": "nominatim",
      "confidence": 0.05340790341039136,
      "geocodedAt": 1781074696839
    },
    {
      "locationText": "文德路",
      "normalizedQuery": "臺北市 文德路",
      "lat": 25.0784569,
      "lng": 121.5823998,
      "geocodeProvider": "nominatim",
      "confidence": 0.05340790341039136,
      "geocodedAt": 1781074698682
    },
    {
      "locationText": "文林北路",
      "normalizedQuery": "臺北市 文林北路",
      "lat": 25.1051566,
      "lng": 121.5180389,
      "geocodeProvider": "nominatim",
      "confidence": 0.05340790341039136,
      "geocodedAt": 1781074700934
    },
    {
      "locationText": "文林路",
      "normalizedQuery": "臺北市 文林路",
      "lat": 25.1034787,
      "lng": 121.5194153,
      "geocodeProvider": "nominatim",
      "confidence": 0.05340790341039136,
      "geocodedAt": 1781074703089
    },
    {
      "locationText": "文湖街",
      "normalizedQuery": "臺北市 文湖街",
      "lat": 25.086527,
      "lng": 121.5615921,
      "geocodeProvider": "nominatim",
      "confidence": 0.05340790341039136,
      "geocodedAt": 1781074705229
    },
    {
      "locationText": "新光路一段",
      "normalizedQuery": "臺北市 新光路一段",
      "lat": 24.9898538,
      "lng": 121.5737346,
      "geocodeProvider": "nominatim",
      "confidence": 0.05340790341039136,
      "geocodedAt": 1781074706976
    },
    {
      "locationText": "新光路二段",
      "normalizedQuery": "臺北市 新光路二段",
      "lat": 25.0021369,
      "lng": 121.5965718,
      "geocodeProvider": "nominatim",
      "confidence": 0.05340790341039136,
      "geocodedAt": 1781074708616
    },
    {
      "locationText": "新明路",
      "normalizedQuery": "臺北市 新明路",
      "lat": 25.0564036,
      "lng": 121.5832869,
      "geocodeProvider": "nominatim",
      "confidence": 0.05340790341039136,
      "geocodedAt": 1781074712712
    },
    {
      "locationText": "新民街",
      "normalizedQuery": "臺北市 新民街",
      "lat": 25.0557063,
      "lng": 121.6111332,
      "geocodeProvider": "nominatim",
      "confidence": 0.05340790341039136,
      "geocodedAt": 1781074716707
    },
    {
      "locationText": "新湖一路",
      "normalizedQuery": "臺北市 新湖一路",
      "lat": 25.0591338,
      "lng": 121.5770776,
      "geocodeProvider": "nominatim",
      "confidence": 0.05340790341039136,
      "geocodedAt": 1781074718339
    },
    {
      "locationText": "新湖三路",
      "normalizedQuery": "臺北市 新湖三路",
      "lat": 25.0658803,
      "lng": 121.5816703,
      "geocodeProvider": "nominatim",
      "confidence": 0.05340790341039136,
      "geocodedAt": 1781074720041
    },
    {
      "locationText": "新湖二路",
      "normalizedQuery": "臺北市 新湖二路",
      "lat": 25.0607969,
      "lng": 121.5756854,
      "geocodeProvider": "nominatim",
      "confidence": 0.05340790341039136,
      "geocodedAt": 1781074721619
    },
    {
      "locationText": "新生北路一段",
      "normalizedQuery": "臺北市 新生北路一段",
      "lat": 25.0458009,
      "lng": 121.5328848,
      "geocodeProvider": "nominatim",
      "confidence": 0.05340790341039136,
      "geocodedAt": 1781074723366
    },
    {
      "locationText": "新生北路二段",
      "normalizedQuery": "臺北市 新生北路二段",
      "lat": 25.0550882,
      "lng": 121.5273902,
      "geocodeProvider": "nominatim",
      "confidence": 0.05340790341039136,
      "geocodedAt": 1781074725512
    },
    {
      "locationText": "新生南路一段",
      "normalizedQuery": "臺北市 新生南路一段",
      "lat": 25.0433885,
      "lng": 121.532803,
      "geocodeProvider": "nominatim",
      "confidence": 0.05340790341039136,
      "geocodedAt": 1781074729889
    },
    {
      "locationText": "新生南路三段",
      "normalizedQuery": "臺北市 新生南路三段",
      "lat": 25.0204782,
      "lng": 121.5341183,
      "geocodeProvider": "nominatim",
      "confidence": 0.05340790341039136,
      "geocodedAt": 1781074732068
    },
    {
      "locationText": "昆明街",
      "normalizedQuery": "臺北市 昆明街",
      "lat": 25.0388785,
      "lng": 121.5040123,
      "geocodeProvider": "nominatim",
      "confidence": 0.05340790341039136,
      "geocodedAt": 1781074734216
    },
    {
      "locationText": "昆陽街",
      "normalizedQuery": "臺北市 昆陽街",
      "lat": 25.0514814,
      "lng": 121.5936232,
      "geocodeProvider": "nominatim",
      "confidence": 0.05340790341039136,
      "geocodedAt": 1781074736236
    },
    {
      "locationText": "昌吉街",
      "normalizedQuery": "臺北市 昌吉街",
      "lat": 25.065893,
      "lng": 121.516022,
      "geocodeProvider": "nominatim",
      "confidence": 0.05340790341039136,
      "geocodedAt": 1781074739953
    },
    {
      "locationText": "明水路",
      "normalizedQuery": "臺北市 明水路",
      "lat": 25.0818661,
      "lng": 121.5514953,
      "geocodeProvider": "nominatim",
      "confidence": 0.05340790341039136,
      "geocodedAt": 1781074742102
    },
    {
      "locationText": "景文街",
      "normalizedQuery": "臺北市 景文街",
      "lat": 24.99356,
      "lng": 121.5412868,
      "geocodeProvider": "nominatim",
      "confidence": 0.05340790341039136,
      "geocodedAt": 1781074744255
    },
    {
      "locationText": "景福街",
      "normalizedQuery": "臺北市 景福街",
      "lat": 24.997046,
      "lng": 121.5363436,
      "geocodeProvider": "nominatim",
      "confidence": 0.05340790341039136,
      "geocodedAt": 1781074746402
    },
    {
      "locationText": "景興路",
      "normalizedQuery": "臺北市 景興路",
      "lat": 24.9938154,
      "lng": 121.5445532,
      "geocodeProvider": "nominatim",
      "confidence": 0.05340790341039136,
      "geocodedAt": 1781074750600
    },
    {
      "locationText": "景華街",
      "normalizedQuery": "臺北市 景華街",
      "lat": 24.9950176,
      "lng": 121.5429382,
      "geocodeProvider": "nominatim",
      "confidence": 0.05340790341039136,
      "geocodedAt": 1781074752752
    },
    {
      "locationText": "木新路一段",
      "normalizedQuery": "臺北市 木新路一段",
      "lat": 24.9892524,
      "lng": 121.5706741,
      "geocodeProvider": "nominatim",
      "confidence": 0.05340790341039136,
      "geocodedAt": 1781074754741
    },
    {
      "locationText": "木柵路一段",
      "normalizedQuery": "臺北市 木柵路一段",
      "lat": 24.9884563,
      "lng": 121.5442252,
      "geocodeProvider": "nominatim",
      "confidence": 0.05340790341039136,
      "geocodedAt": 1781074756848
    },
    {
      "locationText": "木柵路五段",
      "normalizedQuery": "臺北市 木柵路五段",
      "lat": 25.0031235,
      "lng": 121.5864547,
      "geocodeProvider": "nominatim",
      "confidence": 0.05340790341039136,
      "geocodedAt": 1781074758896
    },
    {
      "locationText": "木柵路四段",
      "normalizedQuery": "臺北市 木柵路四段",
      "lat": 24.9964862,
      "lng": 121.5727379,
      "geocodeProvider": "nominatim",
      "confidence": 0.05340790341039136,
      "geocodedAt": 1781074763156
    },
    {
      "locationText": "朱崙街",
      "normalizedQuery": "臺北市 朱崙街",
      "lat": 25.0499727,
      "lng": 121.5404654,
      "geocodeProvider": "nominatim",
      "confidence": 0.05340790341039136,
      "geocodedAt": 1781074764939
    },
    {
      "locationText": "杏林二路",
      "normalizedQuery": "臺北市 杏林二路",
      "lat": 25.1414874,
      "lng": 121.4985916,
      "geocodeProvider": "nominatim",
      "confidence": 0.04007457007705805,
      "geocodedAt": 1781074766986
    },
    {
      "locationText": "杭州南路二段",
      "normalizedQuery": "臺北市 杭州南路二段",
      "lat": 25.0338798,
      "lng": 121.5234471,
      "geocodeProvider": "nominatim",
      "confidence": 0.05340790341039136,
      "geocodedAt": 1781074769097
    },
    {
      "locationText": "東園街",
      "normalizedQuery": "臺北市 東園街",
      "lat": 25.028109,
      "lng": 121.4953664,
      "geocodeProvider": "nominatim",
      "confidence": 0.05340790341039136,
      "geocodedAt": 1781074770877
    },
    {
      "locationText": "東湖路",
      "normalizedQuery": "臺北市 東湖路",
      "lat": 25.0688855,
      "lng": 121.6120753,
      "geocodeProvider": "nominatim",
      "confidence": 0.05340790341039136,
      "geocodedAt": 1781074773130
    },
    {
      "locationText": "松仁路",
      "normalizedQuery": "臺北市 松仁路",
      "lat": 25.0374483,
      "lng": 121.5683332,
      "geocodeProvider": "nominatim",
      "confidence": 0.05340790341039136,
      "geocodedAt": 1781074775150
    },
    {
      "locationText": "松信路",
      "normalizedQuery": "臺北市 松信路",
      "lat": 25.0450679,
      "lng": 121.5720788,
      "geocodeProvider": "nominatim",
      "confidence": 0.05340790341039136,
      "geocodedAt": 1781074777220
    },
    {
      "locationText": "松壽路",
      "normalizedQuery": "臺北市 松壽路",
      "lat": 25.0359195,
      "lng": 121.5627599,
      "geocodeProvider": "nominatim",
      "confidence": 0.05340790341039136,
      "geocodedAt": 1781074778967
    },
    {
      "locationText": "松山路",
      "normalizedQuery": "臺北市 松山路",
      "lat": 25.0296827,
      "lng": 121.5838268,
      "geocodeProvider": "nominatim",
      "confidence": 0.05340790341039136,
      "geocodedAt": 1781074783776
    },
    {
      "locationText": "松平路",
      "normalizedQuery": "臺北市 松平路",
      "lat": 25.0304568,
      "lng": 121.5664045,
      "geocodeProvider": "nominatim",
      "confidence": 0.05340790341039136,
      "geocodedAt": 1781074785929
    },
    {
      "locationText": "松廉路",
      "normalizedQuery": "臺北市 松廉路",
      "lat": 25.0339731,
      "lng": 121.5668622,
      "geocodeProvider": "nominatim",
      "confidence": 0.05340790341039136,
      "geocodedAt": 1781074788388
    },
    {
      "locationText": "松江路",
      "normalizedQuery": "臺北市 松江路",
      "lat": 25.0674513,
      "lng": 121.5332082,
      "geocodeProvider": "nominatim",
      "confidence": 0.05340790341039136,
      "geocodedAt": 1781074793098
    },
    {
      "locationText": "松河街",
      "normalizedQuery": "臺北市 松河街",
      "lat": 25.0558528,
      "lng": 121.5898,
      "geocodeProvider": "nominatim",
      "confidence": 0.05340790341039136,
      "geocodedAt": 1781074794839
    },
    {
      "locationText": "松隆路",
      "normalizedQuery": "臺北市 松隆路",
      "lat": 25.0481417,
      "lng": 121.5789566,
      "geocodeProvider": "nominatim",
      "confidence": 0.05340790341039136,
      "geocodedAt": 1781074796989
    },
    {
      "locationText": "松高路",
      "normalizedQuery": "臺北市 松高路",
      "lat": 25.039181,
      "lng": 121.5625766,
      "geocodeProvider": "nominatim",
      "confidence": 0.05340790341039136,
      "geocodedAt": 1781074799039
    },
    {
      "locationText": "林森北路",
      "normalizedQuery": "臺北市 林森北路",
      "lat": 25.0470337,
      "lng": 121.5239871,
      "geocodeProvider": "nominatim",
      "confidence": 0.05340790341039136,
      "geocodedAt": 1781074800777
    },
    {
      "locationText": "林森南地下道",
      "normalizedQuery": "臺北市 林森南地下道",
      "lat": 25.0656873,
      "lng": 121.5255615,
      "geocodeProvider": "nominatim",
      "confidence": 7.457007705801507e-05,
      "geocodedAt": 1781074804848
    },
    {
      "locationText": "林森南路",
      "normalizedQuery": "臺北市 林森南路",
      "lat": 25.0379346,
      "lng": 121.5213669,
      "geocodeProvider": "nominatim",
      "confidence": 0.05340790341039136,
      "geocodedAt": 1781074807027
    },
    {
      "locationText": "桂林路",
      "normalizedQuery": "臺北市 桂林路",
      "lat": 25.0381898,
      "lng": 121.5028021,
      "geocodeProvider": "nominatim",
      "confidence": 0.05340790341039136,
      "geocodedAt": 1781074809175
    },
    {
      "locationText": "桂林路堤外停車 場",
      "normalizedQuery": "臺北市 桂林路堤外停車 場",
      "lat": 25.0390608,
      "lng": 121.4955193,
      "geocodeProvider": "nominatim",
      "confidence": 7.457007705801507e-05,
      "geocodedAt": 1781074811235
    },
    {
      "locationText": "梧州街",
      "normalizedQuery": "臺北市 梧州街",
      "lat": 25.0369431,
      "lng": 121.4976126,
      "geocodeProvider": "nominatim",
      "confidence": 0.05340790341039136,
      "geocodedAt": 1781074815219
    },
    {
      "locationText": "植福路",
      "normalizedQuery": "臺北市 植福路",
      "lat": 25.0832418,
      "lng": 121.5602586,
      "geocodeProvider": "nominatim",
      "confidence": 0.05340790341039136,
      "geocodedAt": 1781074816954
    },
    {
      "locationText": "樂群三路",
      "normalizedQuery": "臺北市 樂群三路",
      "lat": 25.0826935,
      "lng": 121.5525004,
      "geocodeProvider": "nominatim",
      "confidence": 0.05340790341039136,
      "geocodedAt": 1781074819129
    },
    {
      "locationText": "樂群二路",
      "normalizedQuery": "臺北市 樂群二路",
      "lat": 25.0798948,
      "lng": 121.5582528,
      "geocodeProvider": "nominatim",
      "confidence": 0.05340790341039136,
      "geocodedAt": 1781074821157
    },
    {
      "locationText": "樂群３路",
      "normalizedQuery": "臺北市 樂群３路",
      "lat": 25.0826935,
      "lng": 121.5525004,
      "geocodeProvider": "nominatim",
      "confidence": 0.05340790341039136,
      "geocodedAt": 1781074823202
    },
    {
      "locationText": "武昌街一段",
      "normalizedQuery": "臺北市 武昌街一段",
      "lat": 25.0442323,
      "lng": 121.5089748,
      "geocodeProvider": "nominatim",
      "confidence": 0.05340790341039136,
      "geocodedAt": 1781074825354
    },
    {
      "locationText": "武昌街二段",
      "normalizedQuery": "臺北市 武昌街二段",
      "lat": 25.0446814,
      "lng": 121.5070636,
      "geocodeProvider": "nominatim",
      "confidence": 0.05340790341039136,
      "geocodedAt": 1781074827097
    },
    {
      "locationText": "民族東路",
      "normalizedQuery": "臺北市 民族東路",
      "lat": 25.0681925,
      "lng": 121.5396775,
      "geocodeProvider": "nominatim",
      "confidence": 0.05340790341039136,
      "geocodedAt": 1781074829246
    },
    {
      "locationText": "民族西路",
      "normalizedQuery": "臺北市 民族西路",
      "lat": 25.0686778,
      "lng": 121.509183,
      "geocodeProvider": "nominatim",
      "confidence": 0.05340790341039136,
      "geocodedAt": 1781074833139
    },
    {
      "locationText": "民權大橋",
      "normalizedQuery": "臺北市 民權大橋",
      "lat": 25.065592,
      "lng": 121.5742702,
      "geocodeProvider": "nominatim",
      "confidence": 0.28779482241276744,
      "geocodedAt": 1781074834879
    },
    {
      "locationText": "民權東路一段",
      "normalizedQuery": "臺北市 民權東路一段",
      "lat": 25.0626117,
      "lng": 121.5251525,
      "geocodeProvider": "nominatim",
      "confidence": 0.05340790341039136,
      "geocodedAt": 1781074837029
    },
    {
      "locationText": "民權東路三段",
      "normalizedQuery": "臺北市 民權東路三段",
      "lat": 25.0624217,
      "lng": 121.5433341,
      "geocodeProvider": "nominatim",
      "confidence": 0.05340790341039136,
      "geocodedAt": 1781074839181
    },
    {
      "locationText": "民權東路二段",
      "normalizedQuery": "臺北市 民權東路二段",
      "lat": 25.0626028,
      "lng": 121.5317219,
      "geocodeProvider": "nominatim",
      "confidence": 0.05340790341039136,
      "geocodedAt": 1781074841289
    },
    {
      "locationText": "民權東路五段",
      "normalizedQuery": "臺北市 民權東路五段",
      "lat": 25.0632099,
      "lng": 121.56537,
      "geocodeProvider": "nominatim",
      "confidence": 0.05340790341039136,
      "geocodedAt": 1781074843042
    },
    {
      "locationText": "民權東路六段",
      "normalizedQuery": "臺北市 民權東路六段",
      "lat": 25.0685773,
      "lng": 121.5834678,
      "geocodeProvider": "nominatim",
      "confidence": 0.05340790341039136,
      "geocodedAt": 1781074844808
    },
    {
      "locationText": "民權東路四段",
      "normalizedQuery": "臺北市 民權東路四段",
      "lat": 25.0616169,
      "lng": 121.5515202,
      "geocodeProvider": "nominatim",
      "confidence": 0.05340790341039136,
      "geocodedAt": 1781074847064
    },
    {
      "locationText": "民權西路",
      "normalizedQuery": "臺北市 民權西路",
      "lat": 25.0628506,
      "lng": 121.519403,
      "geocodeProvider": "nominatim",
      "confidence": 0.38815755127900875,
      "geocodedAt": 1781074848984
    },
    {
      "locationText": "民生東路",
      "normalizedQuery": "臺北市 民生東路",
      "lat": 25.0581208,
      "lng": 121.5329864,
      "geocodeProvider": "nominatim",
      "confidence": 7.457007705801507e-05,
      "geocodedAt": 1781074858842
    },
    {
      "locationText": "民生東路一段",
      "normalizedQuery": "臺北市 民生東路一段",
      "lat": 25.0580578,
      "lng": 121.5252657,
      "geocodeProvider": "nominatim",
      "confidence": 0.05340790341039136,
      "geocodedAt": 1781074860686
    },
    {
      "locationText": "民生東路二段",
      "normalizedQuery": "臺北市 民生東路二段",
      "lat": 25.0579441,
      "lng": 121.532654,
      "geocodeProvider": "nominatim",
      "confidence": 0.05340790341039136,
      "geocodedAt": 1781074862837
    },
    {
      "locationText": "民生東路四段",
      "normalizedQuery": "臺北市 民生東路四段",
      "lat": 25.0578998,
      "lng": 121.5506933,
      "geocodeProvider": "nominatim",
      "confidence": 0.05340790341039136,
      "geocodedAt": 1781074864573
    },
    {
      "locationText": "民生西路",
      "normalizedQuery": "臺北市 民生西路",
      "lat": 25.057001,
      "lng": 121.5146978,
      "geocodeProvider": "nominatim",
      "confidence": 0.05340790341039136,
      "geocodedAt": 1781074866726
    },
    {
      "locationText": "水源路",
      "normalizedQuery": "臺北市 水源路",
      "lat": 25.0206641,
      "lng": 121.5213458,
      "geocodeProvider": "nominatim",
      "confidence": 0.05340790341039136,
      "geocodedAt": 1781074871263
    },
    {
      "locationText": "永保街",
      "normalizedQuery": "臺北市 永保街",
      "lat": 25.063795,
      "lng": 121.6013416,
      "geocodeProvider": "nominatim",
      "confidence": 0.05340790341039136,
      "geocodedAt": 1781074872972
    },
    {
      "locationText": "永吉路",
      "normalizedQuery": "臺北市 永吉路",
      "lat": 25.045726,
      "lng": 121.5695983,
      "geocodeProvider": "nominatim",
      "confidence": 0.05340790341039136,
      "geocodedAt": 1781074875125
    },
    {
      "locationText": "永平街",
      "normalizedQuery": "臺北市 永平街",
      "lat": 25.0908094,
      "lng": 121.5050398,
      "geocodeProvider": "nominatim",
      "confidence": 0.053400489051651755,
      "geocodedAt": 1781074877068
    },
    {
      "locationText": "永春街",
      "normalizedQuery": "臺北市 永春街",
      "lat": 25.0138664,
      "lng": 121.5274596,
      "geocodeProvider": "nominatim",
      "confidence": 0.040067155718318447,
      "geocodedAt": 1781074879115
    },
    {
      "locationText": "永福橋",
      "normalizedQuery": "臺北市 永福橋",
      "lat": 25.0115305,
      "lng": 121.5280754,
      "geocodeProvider": "nominatim",
      "confidence": 0.053400489051651755,
      "geocodedAt": 1781074881370
    },
    {
      "locationText": "汀州路一段",
      "normalizedQuery": "臺北市 汀州路一段",
      "lat": 25.0310603,
      "lng": 121.5068869,
      "geocodeProvider": "nominatim",
      "confidence": 0.05340790341039136,
      "geocodedAt": 1781074883111
    },
    {
      "locationText": "汀州路三段",
      "normalizedQuery": "臺北市 汀州路三段",
      "lat": 25.0209728,
      "lng": 121.5254683,
      "geocodeProvider": "nominatim",
      "confidence": 0.05340790341039136,
      "geocodedAt": 1781074885261
    },
    {
      "locationText": "汀州路二段",
      "normalizedQuery": "臺北市 汀州路二段",
      "lat": 25.0250891,
      "lng": 121.5187973,
      "geocodeProvider": "nominatim",
      "confidence": 0.05340790341039136,
      "geocodedAt": 1781074887002
    },
    {
      "locationText": "汀州路四段",
      "normalizedQuery": "臺北市 汀州路四段",
      "lat": 25.0063251,
      "lng": 121.5362761,
      "geocodeProvider": "nominatim",
      "confidence": 0.05340790341039136,
      "geocodedAt": 1781074889567
    },
    {
      "locationText": "汀洲路３段",
      "normalizedQuery": "臺北市 汀洲路３段",
      "lat": 25.0183584,
      "lng": 121.5276343,
      "geocodeProvider": "nominatim",
      "confidence": 0.05340790341039136,
      "geocodedAt": 1781074893628
    },
    {
      "locationText": "汐湖2橋",
      "normalizedQuery": "臺北市 汐湖2橋",
      "lat": 25.066357,
      "lng": 121.6181274,
      "geocodeProvider": "nominatim",
      "confidence": 0.05340790341039136,
      "geocodedAt": 1781074895601
    },
    {
      "locationText": "江南街",
      "normalizedQuery": "臺北市 江南街",
      "lat": 25.0771479,
      "lng": 121.5772438,
      "geocodeProvider": "nominatim",
      "confidence": 0.05340790341039136,
      "geocodedAt": 1781074897344
    },
    {
      "locationText": "河美街",
      "normalizedQuery": "臺北市 河美街",
      "lat": 25.0975788,
      "lng": 121.5044773,
      "geocodeProvider": "nominatim",
      "confidence": 0.05340790341039136,
      "geocodedAt": 1781074899084
    },
    {
      "locationText": "泉州街",
      "normalizedQuery": "臺北市 泉州街",
      "lat": 25.0251546,
      "lng": 121.5131098,
      "geocodeProvider": "nominatim",
      "confidence": 0.05340790341039136,
      "geocodedAt": 1781074901205
    },
    {
      "locationText": "泰順街",
      "normalizedQuery": "臺北市 泰順街",
      "lat": 25.0250271,
      "lng": 121.5314639,
      "geocodeProvider": "nominatim",
      "confidence": 0.05340790341039136,
      "geocodedAt": 1781074904103
    },
    {
      "locationText": "洲子街",
      "normalizedQuery": "臺北市 洲子街",
      "lat": 25.0806223,
      "lng": 121.5696626,
      "geocodeProvider": "nominatim",
      "confidence": 0.05340790341039136,
      "geocodedAt": 1781074905740
    },
    {
      "locationText": "洲美街",
      "normalizedQuery": "臺北市 洲美街",
      "lat": 25.1011825,
      "lng": 121.49997,
      "geocodeProvider": "nominatim",
      "confidence": 0.05340790341039136,
      "geocodedAt": 1781074907892
    },
    {
      "locationText": "清江路",
      "normalizedQuery": "臺北市 清江路",
      "lat": 25.1315782,
      "lng": 121.5015764,
      "geocodeProvider": "nominatim",
      "confidence": 0.05340790341039136,
      "geocodedAt": 1781074911066
    },
    {
      "locationText": "港墘路",
      "normalizedQuery": "臺北市 港墘路",
      "lat": 25.0815291,
      "lng": 121.578159,
      "geocodeProvider": "nominatim",
      "confidence": 0.05340790341039136,
      "geocodedAt": 1781074912806
    },
    {
      "locationText": "港東街",
      "normalizedQuery": "臺北市 港東街",
      "lat": 25.0610162,
      "lng": 121.6195113,
      "geocodeProvider": "nominatim",
      "confidence": 0.053400489051651755,
      "geocodedAt": 1781074917005
    },
    {
      "locationText": "漢口街二段",
      "normalizedQuery": "臺北市 漢口街二段",
      "lat": 25.046203,
      "lng": 121.5046071,
      "geocodeProvider": "nominatim",
      "confidence": 0.05340790341039136,
      "geocodedAt": 1781074918744
    },
    {
      "locationText": "潭美街",
      "normalizedQuery": "臺北市 潭美街",
      "lat": 25.0636077,
      "lng": 121.6103187,
      "geocodeProvider": "nominatim",
      "confidence": 0.05340790341039136,
      "geocodedAt": 1781074920794
    },
    {
      "locationText": "潮州街",
      "normalizedQuery": "臺北市 潮州街",
      "lat": 25.0292294,
      "lng": 121.5241925,
      "geocodeProvider": "nominatim",
      "confidence": 0.05340790341039136,
      "geocodedAt": 1781074922946
    },
    {
      "locationText": "濱江街",
      "normalizedQuery": "臺北市 濱江街",
      "lat": 25.0722209,
      "lng": 121.54342,
      "geocodeProvider": "nominatim",
      "confidence": 0.05340790341039136,
      "geocodedAt": 1781074924891
    },
    {
      "locationText": "濱江街１９９巷口",
      "normalizedQuery": "臺北市 濱江街１９９巷口",
      "lat": 25.0734,
      "lng": 121.53985,
      "geocodeProvider": "nominatim",
      "confidence": 7.457007705801507e-05,
      "geocodedAt": 1781074926529
    },
    {
      "locationText": "瑞光路",
      "normalizedQuery": "臺北市 瑞光路",
      "lat": 25.0757568,
      "lng": 121.5759626,
      "geocodeProvider": "nominatim",
      "confidence": 0.05340790341039136,
      "geocodedAt": 1781074928200
    },
    {
      "locationText": "瑞安街",
      "normalizedQuery": "臺北市 瑞安街",
      "lat": 25.0290646,
      "lng": 121.5418512,
      "geocodeProvider": "nominatim",
      "confidence": 0.05340790341039136,
      "geocodedAt": 1781074930214
    },
    {
      "locationText": "環南市場",
      "normalizedQuery": "臺北市 環南市場",
      "lat": 25.0290753,
      "lng": 121.4902203,
      "geocodeProvider": "nominatim",
      "confidence": 0.08007457007705802,
      "geocodedAt": 1781074931956
    },
    {
      "locationText": "環山路一段",
      "normalizedQuery": "臺北市 環山路一段",
      "lat": 25.0845003,
      "lng": 121.565556,
      "geocodeProvider": "nominatim",
      "confidence": 0.05340790341039136,
      "geocodedAt": 1781074934618
    },
    {
      "locationText": "環山路二段",
      "normalizedQuery": "臺北市 環山路二段",
      "lat": 25.0850957,
      "lng": 121.5744016,
      "geocodeProvider": "nominatim",
      "confidence": 0.05340790341039136,
      "geocodedAt": 1781074936855
    },
    {
      "locationText": "環東大道",
      "normalizedQuery": "臺北市 環東大道",
      "lat": 25.0588868,
      "lng": 121.6053631,
      "geocodeProvider": "nominatim",
      "confidence": 0.05340790341039136,
      "geocodedAt": 1781074939403
    },
    {
      "locationText": "環河北路一段",
      "normalizedQuery": "臺北市 環河北路一段",
      "lat": 25.0530568,
      "lng": 121.5074207,
      "geocodeProvider": "nominatim",
      "confidence": 0.053400489051651755,
      "geocodedAt": 1781074941066
    },
    {
      "locationText": "環河北路三段",
      "normalizedQuery": "臺北市 環河北路三段",
      "lat": 25.0805607,
      "lng": 121.5080209,
      "geocodeProvider": "nominatim",
      "confidence": 0.053400489051651755,
      "geocodedAt": 1781074945375
    },
    {
      "locationText": "環河北路二段",
      "normalizedQuery": "臺北市 環河北路二段",
      "lat": 25.0660745,
      "lng": 121.5088031,
      "geocodeProvider": "nominatim",
      "confidence": 0.05340790341039136,
      "geocodedAt": 1781074947112
    },
    {
      "locationText": "環河南路",
      "normalizedQuery": "臺北市 環河南路",
      "lat": 25.0485191,
      "lng": 121.4898393,
      "geocodeProvider": "nominatim",
      "confidence": 0.05340790341039136,
      "geocodedAt": 1781074949198
    },
    {
      "locationText": "環河南路一段",
      "normalizedQuery": "臺北市 環河南路一段",
      "lat": 25.0451941,
      "lng": 121.5019351,
      "geocodeProvider": "nominatim",
      "confidence": 0.05340790341039136,
      "geocodedAt": 1781074951423
    },
    {
      "locationText": "環河南路三段",
      "normalizedQuery": "臺北市 環河南路三段",
      "lat": 25.0217222,
      "lng": 121.4920888,
      "geocodeProvider": "nominatim",
      "confidence": 0.05340790341039136,
      "geocodedAt": 1781074955188
    },
    {
      "locationText": "環河南路二段",
      "normalizedQuery": "臺北市 環河南路二段",
      "lat": 25.0300926,
      "lng": 121.4895544,
      "geocodeProvider": "nominatim",
      "confidence": 0.05340790341039136,
      "geocodedAt": 1781074959505
    },
    {
      "locationText": "環河快速道路",
      "normalizedQuery": "臺北市 環河快速道路",
      "lat": 25.0320588,
      "lng": 121.4886262,
      "geocodeProvider": "nominatim",
      "confidence": 0.05340790341039136,
      "geocodedAt": 1781074967179
    },
    {
      "locationText": "百齡左岸河濱公 園",
      "normalizedQuery": "臺北市 百齡左岸河濱公 園",
      "lat": 25.0931082,
      "lng": 121.5098771,
      "geocodeProvider": "nominatim",
      "confidence": 0.08007457007705802,
      "geocodedAt": 1781074969249
    },
    {
      "locationText": "百齡左岸河濱公園",
      "normalizedQuery": "臺北市 百齡左岸河濱公園",
      "lat": 25.0931082,
      "lng": 121.5098771,
      "geocodeProvider": "nominatim",
      "confidence": 0.08007457007705802,
      "geocodedAt": 1781074971072
    },
    {
      "locationText": "知行路",
      "normalizedQuery": "臺北市 知行路",
      "lat": 25.1179944,
      "lng": 121.4651018,
      "geocodeProvider": "nominatim",
      "confidence": 0.05340790341039136,
      "geocodedAt": 1781074973129
    },
    {
      "locationText": "石牌路一段",
      "normalizedQuery": "臺北市 石牌路一段",
      "lat": 25.1132736,
      "lng": 121.5107452,
      "geocodeProvider": "nominatim",
      "confidence": 0.05340790341039136,
      "geocodedAt": 1781074975373
    },
    {
      "locationText": "石牌路二段",
      "normalizedQuery": "臺北市 石牌路二段",
      "lat": 25.1236382,
      "lng": 121.525636,
      "geocodeProvider": "nominatim",
      "confidence": 0.05340790341039136,
      "geocodedAt": 1781074977627
    },
    {
      "locationText": "研究院路一段",
      "normalizedQuery": "臺北市 研究院路一段",
      "lat": 25.0547857,
      "lng": 121.6166134,
      "geocodeProvider": "nominatim",
      "confidence": 0.05340790341039136,
      "geocodedAt": 1781074979781
    },
    {
      "locationText": "研究院路三段",
      "normalizedQuery": "臺北市 研究院路三段",
      "lat": 25.033342,
      "lng": 121.6117328,
      "geocodeProvider": "nominatim",
      "confidence": 0.05340790341039136,
      "geocodedAt": 1781074981930
    },
    {
      "locationText": "研究院路二段",
      "normalizedQuery": "臺北市 研究院路二段",
      "lat": 25.0393798,
      "lng": 121.6174071,
      "geocodeProvider": "nominatim",
      "confidence": 0.05340790341039136,
      "geocodedAt": 1781074984078
    },
    {
      "locationText": "社中街",
      "normalizedQuery": "臺北市 社中街",
      "lat": 25.0879966,
      "lng": 121.510112,
      "geocodeProvider": "nominatim",
      "confidence": 0.05340790341039136,
      "geocodedAt": 1781074986229
    },
    {
      "locationText": "社子大橋",
      "normalizedQuery": "臺北市 社子大橋",
      "lat": 25.1115971,
      "lng": 121.4979265,
      "geocodeProvider": "nominatim",
      "confidence": 0.2909516038077344,
      "geocodedAt": 1781074988073
    },
    {
      "locationText": "社子街",
      "normalizedQuery": "臺北市 社子街",
      "lat": 25.0874598,
      "lng": 121.5063217,
      "geocodeProvider": "nominatim",
      "confidence": 0.053400489051651755,
      "geocodedAt": 1781074989975
    },
    {
      "locationText": "社正路",
      "normalizedQuery": "臺北市 社正路",
      "lat": 25.0887847,
      "lng": 121.5095457,
      "geocodeProvider": "nominatim",
      "confidence": 0.05340790341039136,
      "geocodedAt": 1781074991760
    },
    {
      "locationText": "福和橋",
      "normalizedQuery": "臺北市 福和橋",
      "lat": 25.0095301,
      "lng": 121.5336878,
      "geocodeProvider": "nominatim",
      "confidence": 0.29684236187219576,
      "geocodedAt": 1781074993908
    },
    {
      "locationText": "福州街",
      "normalizedQuery": "臺北市 福州街",
      "lat": 25.0278746,
      "lng": 121.5170336,
      "geocodeProvider": "nominatim",
      "confidence": 0.05340790341039136,
      "geocodedAt": 1781074996164
    },
    {
      "locationText": "福德街",
      "normalizedQuery": "臺北市 福德街",
      "lat": 25.0387871,
      "lng": 121.5858247,
      "geocodeProvider": "nominatim",
      "confidence": 0.05340790341039136,
      "geocodedAt": 1781074998007
    },
    {
      "locationText": "福志路",
      "normalizedQuery": "臺北市 福志路",
      "lat": 25.0986515,
      "lng": 121.5288651,
      "geocodeProvider": "nominatim",
      "confidence": 0.05340790341039136,
      "geocodedAt": 1781075000158
    },
    {
      "locationText": "福林路",
      "normalizedQuery": "臺北市 福林路",
      "lat": 25.1001368,
      "lng": 121.5356546,
      "geocodeProvider": "nominatim",
      "confidence": 0.05340790341039136,
      "geocodedAt": 1781075002305
    },
    {
      "locationText": "福港街",
      "normalizedQuery": "臺北市 福港街",
      "lat": 25.0861744,
      "lng": 121.517729,
      "geocodeProvider": "nominatim",
      "confidence": 0.05340790341039136,
      "geocodedAt": 1781075004458
    },
    {
      "locationText": "福興路",
      "normalizedQuery": "臺北市 福興路",
      "lat": 25.0070705,
      "lng": 121.5493711,
      "geocodeProvider": "nominatim",
      "confidence": 0.05340790341039136,
      "geocodedAt": 1781075006710
    },
    {
      "locationText": "秀明路一段",
      "normalizedQuery": "臺北市 秀明路一段",
      "lat": 24.9894024,
      "lng": 121.5640232,
      "geocodeProvider": "nominatim",
      "confidence": 0.05340790341039136,
      "geocodedAt": 1781075008451
    },
    {
      "locationText": "立賢路",
      "normalizedQuery": "臺北市 立賢路",
      "lat": 25.1127466,
      "lng": 121.5003465,
      "geocodeProvider": "nominatim",
      "confidence": 0.05340790341039136,
      "geocodedAt": 1781075010601
    },
    {
      "locationText": "經貿一路",
      "normalizedQuery": "臺北市 經貿一路",
      "lat": 25.0548576,
      "lng": 121.6186423,
      "geocodeProvider": "nominatim",
      "confidence": 0.05340790341039136,
      "geocodedAt": 1781075012650
    },
    {
      "locationText": "經貿二路",
      "normalizedQuery": "臺北市 經貿二路",
      "lat": 25.058735,
      "lng": 121.6167894,
      "geocodeProvider": "nominatim",
      "confidence": 0.05340790341039136,
      "geocodedAt": 1781075016337
    },
    {
      "locationText": "羅斯福路一段",
      "normalizedQuery": "臺北市 羅斯福路一段",
      "lat": 25.0322566,
      "lng": 121.5185563,
      "geocodeProvider": "nominatim",
      "confidence": 0.05340790341039136,
      "geocodedAt": 1781075019205
    },
    {
      "locationText": "羅斯福路三段",
      "normalizedQuery": "臺北市 羅斯福路三段",
      "lat": 25.0229642,
      "lng": 121.5254632,
      "geocodeProvider": "nominatim",
      "confidence": 0.05340790341039136,
      "geocodedAt": 1781075021760
    },
    {
      "locationText": "羅斯福路二段",
      "normalizedQuery": "臺北市 羅斯福路二段",
      "lat": 25.0270768,
      "lng": 121.5225154,
      "geocodeProvider": "nominatim",
      "confidence": 0.05340790341039136,
      "geocodedAt": 1781075023505
    },
    {
      "locationText": "羅斯福路五段",
      "normalizedQuery": "臺北市 羅斯福路五段",
      "lat": 25.0088621,
      "lng": 121.53767,
      "geocodeProvider": "nominatim",
      "confidence": 0.05340790341039136,
      "geocodedAt": 1781075025340
    },
    {
      "locationText": "羅斯福路六段",
      "normalizedQuery": "臺北市 羅斯福路六段",
      "lat": 24.99168,
      "lng": 121.5403804,
      "geocodeProvider": "nominatim",
      "confidence": 0.05340790341039136,
      "geocodedAt": 1781075027376
    },
    {
      "locationText": "羅斯福路四段",
      "normalizedQuery": "臺北市 羅斯福路四段",
      "lat": 25.0157613,
      "lng": 121.5333849,
      "geocodeProvider": "nominatim",
      "confidence": 0.05340790341039136,
      "geocodedAt": 1781075029952
    },
    {
      "locationText": "臥龍街",
      "normalizedQuery": "臺北市 臥龍街",
      "lat": 25.0092926,
      "lng": 121.5655159,
      "geocodeProvider": "nominatim",
      "confidence": 0.35293318613167857,
      "geocodedAt": 1781075032105
    },
    {
      "locationText": "臨江街",
      "normalizedQuery": "臺北市 臨江街",
      "lat": 25.0299236,
      "lng": 121.5552998,
      "geocodeProvider": "nominatim",
      "confidence": 0.05340790341039136,
      "geocodedAt": 1781075034268
    },
    {
      "locationText": "自強街",
      "normalizedQuery": "臺北市 自強街",
      "lat": 25.1106595,
      "lng": 121.5146952,
      "geocodeProvider": "nominatim",
      "confidence": 0.05340790341039136,
      "geocodedAt": 1781075036379
    },
    {
      "locationText": "至善路一段",
      "normalizedQuery": "臺北市 至善路一段",
      "lat": 25.0986085,
      "lng": 121.5370992,
      "geocodeProvider": "nominatim",
      "confidence": 0.05340790341039136,
      "geocodedAt": 1781075038558
    },
    {
      "locationText": "至善路三段",
      "normalizedQuery": "臺北市 至善路三段",
      "lat": 25.1184588,
      "lng": 121.575754,
      "geocodeProvider": "nominatim",
      "confidence": 0.05340790341039136,
      "geocodedAt": 1781075040709
    },
    {
      "locationText": "至善路二段",
      "normalizedQuery": "臺北市 至善路二段",
      "lat": 25.1028543,
      "lng": 121.553237,
      "geocodeProvider": "nominatim",
      "confidence": 0.05340790341039136,
      "geocodedAt": 1781075042388
    },
    {
      "locationText": "致遠一路二段",
      "normalizedQuery": "臺北市 致遠一路二段",
      "lat": 25.1123509,
      "lng": 121.513458,
      "geocodeProvider": "nominatim",
      "confidence": 0.05340790341039136,
      "geocodedAt": 1781075043968
    },
    {
      "locationText": "致遠三路",
      "normalizedQuery": "臺北市 致遠三路",
      "lat": 25.1216428,
      "lng": 121.5111329,
      "geocodeProvider": "nominatim",
      "confidence": 0.05340790341039136,
      "geocodedAt": 1781075046032
    },
    {
      "locationText": "興中路",
      "normalizedQuery": "臺北市 興中路",
      "lat": 25.0562976,
      "lng": 121.6071081,
      "geocodeProvider": "nominatim",
      "confidence": 0.05340790341039136,
      "geocodedAt": 1781075050539
    },
    {
      "locationText": "興南街",
      "normalizedQuery": "臺北市 興南街",
      "lat": 25.0558704,
      "lng": 121.6008633,
      "geocodeProvider": "nominatim",
      "confidence": 0.05340790341039136,
      "geocodedAt": 1781075052687
    },
    {
      "locationText": "興華路",
      "normalizedQuery": "臺北市 興華路",
      "lat": 25.056073,
      "lng": 121.6057705,
      "geocodeProvider": "nominatim",
      "confidence": 0.05340790341039136,
      "geocodedAt": 1781075054837
    },
    {
      "locationText": "興隆路一段",
      "normalizedQuery": "臺北市 興隆路一段",
      "lat": 25.0043362,
      "lng": 121.5387609,
      "geocodeProvider": "nominatim",
      "confidence": 0.05340790341039136,
      "geocodedAt": 1781075056992
    },
    {
      "locationText": "興隆路三段",
      "normalizedQuery": "臺北市 興隆路三段",
      "lat": 24.9930462,
      "lng": 121.558876,
      "geocodeProvider": "nominatim",
      "confidence": 0.05340790341039136,
      "geocodedAt": 1781075059140
    },
    {
      "locationText": "興隆路二段",
      "normalizedQuery": "臺北市 興隆路二段",
      "lat": 25.0003021,
      "lng": 121.5484426,
      "geocodeProvider": "nominatim",
      "confidence": 0.05340790341039136,
      "geocodedAt": 1781075061292
    },
    {
      "locationText": "舊宗路一段",
      "normalizedQuery": "臺北市 舊宗路一段",
      "lat": 25.059604,
      "lng": 121.5797763,
      "geocodeProvider": "nominatim",
      "confidence": 0.05340790341039136,
      "geocodedAt": 1781075063371
    },
    {
      "locationText": "舊宗路二段",
      "normalizedQuery": "臺北市 舊宗路二段",
      "lat": 25.0709443,
      "lng": 121.5747958,
      "geocodeProvider": "nominatim",
      "confidence": 0.05340790341039136,
      "geocodedAt": 1781075065079
    },
    {
      "locationText": "舊莊街一段",
      "normalizedQuery": "臺北市 舊莊街一段",
      "lat": 25.0371917,
      "lng": 121.6238671,
      "geocodeProvider": "nominatim",
      "confidence": 0.05340790341039136,
      "geocodedAt": 1781075067180
    },
    {
      "locationText": "舊莊路一段",
      "normalizedQuery": "臺北市 舊莊路一段",
      "lat": 25.0491298,
      "lng": 121.615744,
      "geocodeProvider": "nominatim",
      "confidence": 0.05340790341039136,
      "geocodedAt": 1781075068972
    },
    {
      "locationText": "艋舺大道",
      "normalizedQuery": "臺北市 艋舺大道",
      "lat": 25.0342274,
      "lng": 121.505164,
      "geocodeProvider": "nominatim",
      "confidence": 0.05340790341039136,
      "geocodedAt": 1781075071123
    },
    {
      "locationText": "芳蘭路",
      "normalizedQuery": "臺北市 芳蘭路",
      "lat": 25.0145738,
      "lng": 121.5471948,
      "geocodeProvider": "nominatim",
      "confidence": 0.05340790341039136,
      "geocodedAt": 1781075075245
    },
    {
      "locationText": "莊敬路",
      "normalizedQuery": "臺北市 莊敬路",
      "lat": 25.0314051,
      "lng": 121.5613083,
      "geocodeProvider": "nominatim",
      "confidence": 0.05340790341039136,
      "geocodedAt": 1781075077470
    },
    {
      "locationText": "莒光路",
      "normalizedQuery": "臺北市 莒光路",
      "lat": 25.0312536,
      "lng": 121.5023741,
      "geocodeProvider": "nominatim",
      "confidence": 0.05340790341039136,
      "geocodedAt": 1781075079210
    },
    {
      "locationText": "菁山路",
      "normalizedQuery": "臺北市 菁山路",
      "lat": 25.1477357,
      "lng": 121.558631,
      "geocodeProvider": "nominatim",
      "confidence": 0.05340790341039136,
      "geocodedAt": 1781075080952
    },
    {
      "locationText": "華中橋",
      "normalizedQuery": "臺北市 華中橋",
      "lat": 25.0106424,
      "lng": 121.495438,
      "geocodeProvider": "nominatim",
      "confidence": 0.29892160108322774,
      "geocodedAt": 1781075083025
    },
    {
      "locationText": "華江橋機車道",
      "normalizedQuery": "臺北市 華江橋機車道",
      "lat": 25.0304407,
      "lng": 121.4879505,
      "geocodeProvider": "nominatim",
      "confidence": 0.04007457007705805,
      "geocodedAt": 1781075085149
    },
    {
      "locationText": "華西街",
      "normalizedQuery": "臺北市 華西街",
      "lat": 25.0390621,
      "lng": 121.4984714,
      "geocodeProvider": "nominatim",
      "confidence": 0.05340790341039136,
      "geocodedAt": 1781075086894
    },
    {
      "locationText": "菸廠路",
      "normalizedQuery": "臺北市 菸廠路",
      "lat": 25.0449661,
      "lng": 121.5613752,
      "geocodeProvider": "nominatim",
      "confidence": 0.05340790341039136,
      "geocodedAt": 1781075088591
    },
    {
      "locationText": "萬大路",
      "normalizedQuery": "臺北市 萬大路",
      "lat": 25.0228504,
      "lng": 121.4995366,
      "geocodeProvider": "nominatim",
      "confidence": 0.05340790341039136,
      "geocodedAt": 1781075090680
    },
    {
      "locationText": "萬板大橋",
      "normalizedQuery": "臺北市 萬板大橋",
      "lat": 25.029613,
      "lng": 121.4866637,
      "geocodeProvider": "nominatim",
      "confidence": 0.053400489051651755,
      "geocodedAt": 1781075099489
    },
    {
      "locationText": "萬芳路",
      "normalizedQuery": "臺北市 萬芳路",
      "lat": 24.9971848,
      "lng": 121.5710253,
      "geocodeProvider": "nominatim",
      "confidence": 0.05340790341039136,
      "geocodedAt": 1781075101240
    },
    {
      "locationText": "萬青街",
      "normalizedQuery": "臺北市 萬青街",
      "lat": 25.0237009,
      "lng": 121.5016212,
      "geocodeProvider": "nominatim",
      "confidence": 0.05340790341039136,
      "geocodedAt": 1781075103378
    },
    {
      "locationText": "葫蘆街",
      "normalizedQuery": "臺北市 葫蘆街",
      "lat": 25.0801826,
      "lng": 121.5092364,
      "geocodeProvider": "nominatim",
      "confidence": 0.05340790341039136,
      "geocodedAt": 1781075105734
    },
    {
      "locationText": "蘭州街",
      "normalizedQuery": "臺北市 蘭州街",
      "lat": 25.0623467,
      "lng": 121.5144542,
      "geocodeProvider": "nominatim",
      "confidence": 0.05340790341039136,
      "geocodedAt": 1781075107884
    },
    {
      "locationText": "虎林街",
      "normalizedQuery": "臺北市 虎林街",
      "lat": 25.0489458,
      "lng": 121.5759391,
      "geocodeProvider": "nominatim",
      "confidence": 0.05340790341039136,
      "geocodedAt": 1781075110031
    },
    {
      "locationText": "行義路",
      "normalizedQuery": "臺北市 行義路",
      "lat": 25.1448704,
      "lng": 121.5255462,
      "geocodeProvider": "nominatim",
      "confidence": 0.05340790341039136,
      "geocodedAt": 1781075111778
    },
    {
      "locationText": "裕民二路",
      "normalizedQuery": "臺北市 裕民二路",
      "lat": 25.1152748,
      "lng": 121.5168505,
      "geocodeProvider": "nominatim",
      "confidence": 0.05340790341039136,
      "geocodedAt": 1781075115395
    },
    {
      "locationText": "西園路一段",
      "normalizedQuery": "臺北市 西園路一段",
      "lat": 25.0375708,
      "lng": 121.4995658,
      "geocodeProvider": "nominatim",
      "confidence": 0.05340790341039136,
      "geocodedAt": 1781075117511
    },
    {
      "locationText": "西園路二段",
      "normalizedQuery": "臺北市 西園路二段",
      "lat": 25.026476,
      "lng": 121.4931055,
      "geocodeProvider": "nominatim",
      "confidence": 0.05340790341039136,
      "geocodedAt": 1781075119459
    },
    {
      "locationText": "西寧北路",
      "normalizedQuery": "臺北市 西寧北路",
      "lat": 25.0556937,
      "lng": 121.5089474,
      "geocodeProvider": "nominatim",
      "confidence": 0.05340790341039136,
      "geocodedAt": 1781075124263
    },
    {
      "locationText": "西寧南路",
      "normalizedQuery": "臺北市 西寧南路",
      "lat": 25.0442109,
      "lng": 121.5063534,
      "geocodeProvider": "nominatim",
      "confidence": 0.05340790341039136,
      "geocodedAt": 1781075130912
    },
    {
      "locationText": "西昌街",
      "normalizedQuery": "臺北市 西昌街",
      "lat": 25.0422342,
      "lng": 121.5006996,
      "geocodeProvider": "nominatim",
      "confidence": 0.05340790341039136,
      "geocodedAt": 1781075135738
    },
    {
      "locationText": "西藏路",
      "normalizedQuery": "臺北市 西藏路",
      "lat": 25.0297684,
      "lng": 121.5023646,
      "geocodeProvider": "nominatim",
      "confidence": 0.05340790341039136,
      "geocodedAt": 1781075137869
    },
    {
      "locationText": "詔安街",
      "normalizedQuery": "臺北市 詔安街",
      "lat": 25.0252613,
      "lng": 121.5129352,
      "geocodeProvider": "nominatim",
      "confidence": 0.05340790341039136,
      "geocodedAt": 1781075139931
    },
    {
      "locationText": "貴陽街二段",
      "normalizedQuery": "臺北市 貴陽街二段",
      "lat": 25.0393921,
      "lng": 121.5063921,
      "geocodeProvider": "nominatim",
      "confidence": 0.05340790341039136,
      "geocodedAt": 1781075141906
    },
    {
      "locationText": "辛亥路一段",
      "normalizedQuery": "臺北市 辛亥路一段",
      "lat": 25.0181227,
      "lng": 121.5276533,
      "geocodeProvider": "nominatim",
      "confidence": 0.05340790341039136,
      "geocodedAt": 1781075143920
    },
    {
      "locationText": "辛亥路七段",
      "normalizedQuery": "臺北市 辛亥路七段",
      "lat": 24.9856426,
      "lng": 121.5537018,
      "geocodeProvider": "nominatim",
      "confidence": 0.05340790341039136,
      "geocodedAt": 1781075145860
    },
    {
      "locationText": "辛亥路三段",
      "normalizedQuery": "臺北市 辛亥路三段",
      "lat": 25.0194633,
      "lng": 121.5459957,
      "geocodeProvider": "nominatim",
      "confidence": 0.05340790341039136,
      "geocodedAt": 1781075148086
    },
    {
      "locationText": "辛亥路二段",
      "normalizedQuery": "臺北市 辛亥路二段",
      "lat": 25.0223265,
      "lng": 121.5382515,
      "geocodeProvider": "nominatim",
      "confidence": 0.05340790341039136,
      "geocodedAt": 1781075150691
    },
    {
      "locationText": "辛亥路六段",
      "normalizedQuery": "臺北市 辛亥路六段",
      "lat": 24.9899354,
      "lng": 121.5523463,
      "geocodeProvider": "nominatim",
      "confidence": 0.05340790341039136,
      "geocodedAt": 1781075152942
    },
    {
      "locationText": "辛亥路四段",
      "normalizedQuery": "臺北市 辛亥路四段",
      "lat": 25.0049638,
      "lng": 121.5571203,
      "geocodeProvider": "nominatim",
      "confidence": 0.05340790341039136,
      "geocodedAt": 1781075155073
    },
    {
      "locationText": "農安街",
      "normalizedQuery": "臺北市 農安街",
      "lat": 25.0648615,
      "lng": 121.5219434,
      "geocodeProvider": "nominatim",
      "confidence": 0.05340790341039136,
      "geocodedAt": 1781075157121
    },
    {
      "locationText": "迪化街一段",
      "normalizedQuery": "臺北市 迪化街一段",
      "lat": 25.0618103,
      "lng": 121.5092395,
      "geocodeProvider": "nominatim",
      "confidence": 0.05340790341039136,
      "geocodedAt": 1781075159205
    },
    {
      "locationText": "通化街",
      "normalizedQuery": "臺北市 通化街",
      "lat": 25.0287281,
      "lng": 121.5538123,
      "geocodeProvider": "nominatim",
      "confidence": 0.05340790341039136,
      "geocodedAt": 1781075163892
    },
    {
      "locationText": "通北街",
      "normalizedQuery": "臺北市 通北街",
      "lat": 25.083586,
      "lng": 121.5380286,
      "geocodeProvider": "nominatim",
      "confidence": 0.05340790341039136,
      "geocodedAt": 1781075165982
    },
    {
      "locationText": "通河東街一段",
      "normalizedQuery": "臺北市 通河東街一段",
      "lat": 25.0847653,
      "lng": 121.5161599,
      "geocodeProvider": "nominatim",
      "confidence": 0.05340790341039136,
      "geocodedAt": 1781075168364
    },
    {
      "locationText": "通河西街二段",
      "normalizedQuery": "臺北市 通河西街二段",
      "lat": 25.0931245,
      "lng": 121.5061233,
      "geocodeProvider": "nominatim",
      "confidence": 0.05340790341039136,
      "geocodedAt": 1781075171069
    },
    {
      "locationText": "鄭州路",
      "normalizedQuery": "臺北市 鄭州路",
      "lat": 25.04977,
      "lng": 121.5126435,
      "geocodeProvider": "nominatim",
      "confidence": 0.05340790341039136,
      "geocodedAt": 1781075175070
    },
    {
      "locationText": "重三路",
      "normalizedQuery": "臺北市 重三路",
      "lat": 25.1402455,
      "lng": 121.4889362,
      "geocodeProvider": "nominatim",
      "confidence": 0.05340790341039136,
      "geocodedAt": 1781075182252
    },
    {
      "locationText": "重慶北路三段",
      "normalizedQuery": "臺北市 重慶北路三段",
      "lat": 25.0663943,
      "lng": 121.513604,
      "geocodeProvider": "nominatim",
      "confidence": 0.05340790341039136,
      "geocodedAt": 1781075184247
    },
    {
      "locationText": "重慶北路二段",
      "normalizedQuery": "臺北市 重慶北路二段",
      "lat": 25.055049,
      "lng": 121.5142492,
      "geocodeProvider": "nominatim",
      "confidence": 0.05340790341039136,
      "geocodedAt": 1781075192332
    },
    {
      "locationText": "重慶北路四段",
      "normalizedQuery": "臺北市 重慶北路四段",
      "lat": 25.0823975,
      "lng": 121.5123812,
      "geocodeProvider": "nominatim",
      "confidence": 0.05340790341039136,
      "geocodedAt": 1781075197385
    },
    {
      "locationText": "重慶南路一段",
      "normalizedQuery": "臺北市 重慶南路一段",
      "lat": 25.0375078,
      "lng": 121.512688,
      "geocodeProvider": "nominatim",
      "confidence": 0.05340790341039136,
      "geocodedAt": 1781075203042
    },
    {
      "locationText": "重慶南路三段",
      "normalizedQuery": "臺北市 重慶南路三段",
      "lat": 25.028547,
      "lng": 121.5155559,
      "geocodeProvider": "nominatim",
      "confidence": 0.05340790341039136,
      "geocodedAt": 1781075204858
    },
    {
      "locationText": "重慶南路二段",
      "normalizedQuery": "臺北市 重慶南路二段",
      "lat": 25.0335003,
      "lng": 121.5135011,
      "geocodeProvider": "nominatim",
      "confidence": 0.05340790341039136,
      "geocodedAt": 1781075206541
    },
    {
      "locationText": "重陽路",
      "normalizedQuery": "臺北市 重陽路",
      "lat": 25.0569437,
      "lng": 121.5998567,
      "geocodeProvider": "nominatim",
      "confidence": 0.05340790341039136,
      "geocodedAt": 1781075208778
    },
    {
      "locationText": "金山北路",
      "normalizedQuery": "臺北市 金山北路",
      "lat": 25.044807,
      "lng": 121.5305277,
      "geocodeProvider": "nominatim",
      "confidence": 0.05340790341039136,
      "geocodedAt": 1781075210903
    },
    {
      "locationText": "金山南路一段",
      "normalizedQuery": "臺北市 金山南路一段",
      "lat": 25.0421293,
      "lng": 121.5294691,
      "geocodeProvider": "nominatim",
      "confidence": 0.05340790341039136,
      "geocodedAt": 1781075213052
    },
    {
      "locationText": "金湖路",
      "normalizedQuery": "臺北市 金湖路",
      "lat": 25.0841363,
      "lng": 121.5950872,
      "geocodeProvider": "nominatim",
      "confidence": 0.05340790341039136,
      "geocodedAt": 1781075215202
    },
    {
      "locationText": "金龍路",
      "normalizedQuery": "臺北市 金龍路",
      "lat": 25.0858786,
      "lng": 121.5900391,
      "geocodeProvider": "nominatim",
      "confidence": 0.05340790341039136,
      "geocodedAt": 1781075217046
    },
    {
      "locationText": "銀光巷",
      "normalizedQuery": "臺北市 銀光巷",
      "lat": 25.1359319,
      "lng": 121.5159768,
      "geocodeProvider": "nominatim",
      "confidence": 0.04007457007705805,
      "geocodedAt": 1781075218940
    },
    {
      "locationText": "錦州街",
      "normalizedQuery": "臺北市 錦州街",
      "lat": 25.0602279,
      "lng": 121.5407156,
      "geocodeProvider": "nominatim",
      "confidence": 0.05340790341039136,
      "geocodedAt": 1781075221036
    },
    {
      "locationText": "長安東路一段",
      "normalizedQuery": "臺北市 長安東路一段",
      "lat": 25.0485868,
      "lng": 121.5270377,
      "geocodeProvider": "nominatim",
      "confidence": 0.05340790341039136,
      "geocodedAt": 1781075222778
    },
    {
      "locationText": "長安東路二段",
      "normalizedQuery": "臺北市 長安東路二段",
      "lat": 25.0484276,
      "lng": 121.5298841,
      "geocodeProvider": "nominatim",
      "confidence": 0.05340790341039136,
      "geocodedAt": 1781075227390
    },
    {
      "locationText": "長安西路",
      "normalizedQuery": "臺北市 長安西路",
      "lat": 25.051085,
      "lng": 121.5161976,
      "geocodeProvider": "nominatim",
      "confidence": 0.05340790341039136,
      "geocodedAt": 1781075229540
    },
    {
      "locationText": "長春路",
      "normalizedQuery": "臺北市 長春路",
      "lat": 25.054587,
      "lng": 121.5430803,
      "geocodeProvider": "nominatim",
      "confidence": 0.05340790341039136,
      "geocodedAt": 1781075231691
    },
    {
      "locationText": "長順街",
      "normalizedQuery": "臺北市 長順街",
      "lat": 25.0318662,
      "lng": 121.4897895,
      "geocodeProvider": "nominatim",
      "confidence": 0.05340790341039136,
      "geocodedAt": 1781075234146
    },
    {
      "locationText": "開封街一段",
      "normalizedQuery": "臺北市 開封街一段",
      "lat": 25.0459566,
      "lng": 121.5104087,
      "geocodeProvider": "nominatim",
      "confidence": 0.05340790341039136,
      "geocodedAt": 1781075235771
    },
    {
      "locationText": "雙園街",
      "normalizedQuery": "臺北市 雙園街",
      "lat": 25.031162,
      "lng": 121.4926434,
      "geocodeProvider": "nominatim",
      "confidence": 0.05340790341039136,
      "geocodedAt": 1781075237409
    },
    {
      "locationText": "雙城街",
      "normalizedQuery": "臺北市 雙城街",
      "lat": 25.0645288,
      "lng": 121.5243338,
      "geocodeProvider": "nominatim",
      "confidence": 0.05340790341039136,
      "geocodedAt": 1781075239093
    },