{
  "exportedAt": 1781020800000,
  "generatedFrom": "Local demo geocode seed for bundled Taipei DOT starter records. Coordinates are approximate road/landmark centroids for visualization only.",
  "locations": [
    { "locationText": "中央北路三段", "normalizedQuery": "臺北市 中央北路三段", "lat": 25.1376, "lng": 121.4892, "geocodeProvider": "local-demo-seed", "confidence": 0.72, "geocodedAt": 1781020800000 },
    { "locationText": "中正路", "normalizedQuery": "臺北市 中正路", "lat": 25.1325, "lng": 121.5009, "geocodeProvider": "local-demo-seed", "confidence": 0.66, "geocodedAt": 1781020800000 },
    { "locationText": "中興橋", "normalizedQuery": "臺北市 中興橋", "lat": 25.0475, "lng": 121.5046, "geocodeProvider": "local-demo-seed", "confidence": 0.88, "geocodedAt": 1781020800000 },
    { "locationText": "仁愛路四段", "normalizedQuery": "臺北市 仁愛路四段", "lat": 25.0376, "lng": 121.5525, "geocodeProvider": "local-demo-seed", "confidence": 0.74, "geocodedAt": 1781020800000 },
    { "locationText": "北安路", "normalizedQuery": "臺北市 北安路", "lat": 25.0828, "lng": 121.5492, "geocodeProvider": "local-demo-seed", "confidence": 0.72, "geocodedAt": 1781020800000 },
    { "locationText": "和平西路三段", "normalizedQuery": "臺北市 和平西路三段", "lat": 25.0354, "lng": 121.5006, "geocodeProvider": "local-demo-seed", "confidence": 0.74, "geocodedAt": 1781020800000 },
    { "locationText": "堤頂大道一段", "normalizedQuery": "臺北市 堤頂大道一段", "lat": 25.073, "lng": 121.5714, "geocodeProvider": "local-demo-seed", "confidence": 0.74, "geocodedAt": 1781020800000 },
    { "locationText": "市民大道一段", "normalizedQuery": "臺北市 市民大道一段", "lat": 25.0491, "lng": 121.5158, "geocodeProvider": "local-demo-seed", "confidence": 0.74, "geocodedAt": 1781020800000 },
    { "locationText": "市民大道三段", "normalizedQuery": "臺北市 市民大道三段", "lat": 25.0456, "lng": 121.5363, "geocodeProvider": "local-demo-seed", "confidence": 0.74, "geocodedAt": 1781020800000 },
    { "locationText": "市民大道四段", "normalizedQuery": "臺北市 市民大道四段", "lat": 25.0447, "lng": 121.5497, "geocodeProvider": "local-demo-seed", "confidence": 0.74, "geocodedAt": 1781020800000 },
    { "locationText": "市民大道五段", "normalizedQuery": "臺北市 市民大道五段", "lat": 25.0448, "lng": 121.5631, "geocodeProvider": "local-demo-seed", "confidence": 0.74, "geocodedAt": 1781020800000 },
    { "locationText": "康寧路三段", "normalizedQuery": "臺北市 康寧路三段", "lat": 25.0708, "lng": 121.6114, "geocodeProvider": "local-demo-seed", "confidence": 0.72, "geocodedAt": 1781020800000 },
    { "locationText": "忠孝東路三段", "normalizedQuery": "臺北市 忠孝東路三段", "lat": 25.0415, "lng": 121.5408, "geocodeProvider": "local-demo-seed", "confidence": 0.74, "geocodedAt": 1781020800000 },
    { "locationText": "忠孝東路七段", "normalizedQuery": "臺北市 忠孝東路七段", "lat": 25.0517, "lng": 121.6106, "geocodeProvider": "local-demo-seed", "confidence": 0.74, "geocodedAt": 1781020800000 },
    { "locationText": "承德路五段", "normalizedQuery": "臺北市 承德路五段", "lat": 25.0902, "lng": 121.5185, "geocodeProvider": "local-demo-seed", "confidence": 0.72, "geocodedAt": 1781020800000 },
    { "locationText": "成功路二段", "normalizedQuery": "臺北市 成功路二段", "lat": 25.0727, "lng": 121.5894, "geocodeProvider": "local-demo-seed", "confidence": 0.74, "geocodedAt": 1781020800000 },
    { "locationText": "新光路二段", "normalizedQuery": "臺北市 新光路二段", "lat": 24.9971, "lng": 121.5761, "geocodeProvider": "local-demo-seed", "confidence": 0.72, "geocodedAt": 1781020800000 },
    { "locationText": "昌吉街", "normalizedQuery": "臺北市 昌吉街", "lat": 25.0658, "lng": 121.5152, "geocodeProvider": "local-demo-seed", "confidence": 0.72, "geocodedAt": 1781020800000 },
    { "locationText": "松江路", "normalizedQuery": "臺北市 松江路", "lat": 25.0545, "lng": 121.5334, "geocodeProvider": "local-demo-seed", "confidence": 0.72, "geocodedAt": 1781020800000 },
    { "locationText": "民權西路", "normalizedQuery": "臺北市 民權西路", "lat": 25.0631, "lng": 121.5173, "geocodeProvider": "local-demo-seed", "confidence": 0.74, "geocodedAt": 1781020800000 },
    { "locationText": "清江路", "normalizedQuery": "臺北市 清江路", "lat": 25.1287, "lng": 121.5025, "geocodeProvider": "local-demo-seed", "confidence": 0.7, "geocodedAt": 1781020800000 },
    { "locationText": "濱江街", "normalizedQuery": "臺北市 濱江街", "lat": 25.0702, "lng": 121.5393, "geocodeProvider": "local-demo-seed", "confidence": 0.72, "geocodedAt": 1781020800000 },
    { "locationText": "環河北路二段", "normalizedQuery": "臺北市 環河北路二段", "lat": 25.0665, "lng": 121.5073, "geocodeProvider": "local-demo-seed", "confidence": 0.74, "geocodedAt": 1781020800000 },
    { "locationText": "環河南路二段", "normalizedQuery": "臺北市 環河南路二段", "lat": 25.0336, "lng": 121.4936, "geocodeProvider": "local-demo-seed", "confidence": 0.74, "geocodedAt": 1781020800000 },
    { "locationText": "經貿一路", "normalizedQuery": "臺北市 經貿一路", "lat": 25.0599, "lng": 121.6169, "geocodeProvider": "local-demo-seed", "confidence": 0.72, "geocodedAt": 1781020800000 },
    { "locationText": "華江橋機車道", "normalizedQuery": "臺北市 華江橋機車道", "lat": 25.0353, "lng": 121.492, "geocodeProvider": "local-demo-seed", "confidence": 0.82, "geocodedAt": 1781020800000 },
    { "locationText": "西寧北路", "normalizedQuery": "臺北市 西寧北路", "lat": 25.0555, "lng": 121.5089, "geocodeProvider": "local-demo-seed", "confidence": 0.72, "geocodedAt": 1781020800000 },
    { "locationText": "鄭州路", "normalizedQuery": "臺北市 鄭州路", "lat": 25.0498, "lng": 121.5136, "geocodeProvider": "local-demo-seed", "confidence": 0.72, "geocodedAt": 1781020800000 },
    { "locationText": "鄭州路與塔城街", "normalizedQuery": "臺北市 鄭州路與塔城街", "lat": 25.0503, "lng": 121.511, "geocodeProvider": "local-demo-seed", "confidence": 0.84, "geocodedAt": 1781020800000 },
    { "locationText": "錦州街", "normalizedQuery": "臺北市 錦州街", "lat": 25.0604, "lng": 121.5373, "geocodeProvider": "local-demo-seed", "confidence": 0.72, "geocodedAt": 1781020800000 },
    { "locationText": "辛亥路二段", "normalizedQuery": "臺北市 辛亥路二段", "lat": 25.0218, "lng": 121.5367, "geocodeProvider": "local-demo-seed", "confidence": 0.74, "geocodedAt": 1781020800000 },
    { "locationText": "龍江路", "normalizedQuery": "臺北市 龍江路", "lat": 25.0623, "lng": 121.5405, "geocodeProvider": "local-demo-seed", "confidence": 0.72, "geocodedAt": 1781020800000 }
  ]
}
